무인교통단속카메라관리번호,시도명,시군구명,도로종류,도로노선번호,도로노선명,도로노선방향,소재지도로명주소,소재지지번주소,위도,경도,설치장소,단속구분,제한속도,단속구간위치구분,과속단속구간길이,보호구역구분,설치연도,관리기관명,관리기관전화번호,데이터기준일자
F4383,서울특별시,용산구,특별시도,,효창원로,2,서울특별시 용산구 효창원로 137,,37.54094231,126.9618319,금양초등학교  앞,2,30,,,2,2008,서울특별시경찰청,02-700-5031,8/19/2022
F4385,서울특별시,도봉구,특별시도,,방학로,2,서울특별시 도봉구 방학로 101,,37.66261894,127.0410483,방학사거리,2,50,,,,2008,서울특별시경찰청,02-700-5031,8/19/2022
F4387,서울특별시,양천구,특별시도,,안양천로,2,서울특별시 양천구 안양천로 1039,,37.53539226,126.8877343,양정중학교 앞,2,50,,,,2008,서울특별시경찰청,02-700-5031,8/19/2022
F4393,서울특별시,강동구,일반국도,43,천호대로,2,서울특별시 강동구 천호대로 1477,,37.54757217,127.1726635,상일사거리,2,50,,,,2008,서울특별시경찰청,02-700-5031,8/19/2022
F4394,서울특별시,종로구,일반국도,6,종로,1,서울특별시 종로구 종로 186,,37.57044596,126.9983949,종로4가 교차로,2,50,,,,2008,서울특별시경찰청,02-700-5031,8/19/2022
F4396,서울특별시,노원구,특별시도,,화랑로,2,서울특별시 노원구 화랑로 727,,37.63478143,127.1016921,태릉선수촌입구 전방100m,1,50,,,,2008,서울특별시경찰청,02-700-5031,8/19/2022
F4399,서울특별시,마포구,일반국도,48,성산로,2,서울특별시 마포구 성산로 206,,37.56675416,126.9161067,모래내고가차도 종점,1,50,,,,2008,서울특별시경찰청,02-700-5031,8/19/2022
F4400,서울특별시,영등포구,특별시도,,도림천로,2,서울특별시 영등포구 대림동 616-1,서울특별시 영등포구 대림동 616-1,37.50509899,126.8939976,신도림고가차도 종점,1,50,,,,2008,서울특별시경찰청,02-700-5031,8/19/2022
F4403,서울특별시,마포구,일반국도,48,성산로,1,서울특별시 마포구 성산동 565-9,서울특별시 마포구 성산동 565-9,37.56044308,126.8967713,성산대교북단 교차로,1,50,,,,2008,서울특별시경찰청,02-700-5031,8/19/2022
F4404,서울특별시,광진구,일반국도,3,동일로,1,서울특별시 광진구 동일로 398,,37.565887,127.0777383,현대오일뱅크 중원주유소 앞,1,50,,,,2008,서울특별시경찰청,02-700-5031,8/19/2022
F4406,서울특별시,영등포구,고속국도,88,올림픽대로,1,서울특별시 영등포구 양화동 1-43,서울특별시 영등포구 양화동 1-43,37.54790297,126.8877116,한강공원 양화지구 앞,1,80,,,,2008,서울특별시경찰청,02-700-5031,8/19/2022
F4409,서울특별시,송파구,고속국도,88,올림픽대로,1,서울특별시 송파구 신천동 5,서울특별시 송파구 신천동 5,37.52243873,127.1009041,장미1차아파트 15동 앞,1,80,,,,2008,서울특별시경찰청,02-700-5031,8/19/2022
F4413,서울특별시,중랑구,특별시도,,북부간선도로,2,서울특별시 중랑구 신내동 296-2,서울특별시 중랑구 신내동 296-2,37.6165991,127.0980956,신내IC 후방 100m,1,70,,,,2008,서울특별시경찰청,02-700-5031,8/19/2022
F4417,서울특별시,양천구,특별시도,,목동서로,2,서울특별시 양천구 목동서로 225,,37.52707541,126.870746,신시가지아파트 705동 앞,1,50,,,,2008,서울특별시경찰청,02-700-5031,8/19/2022
F4419,서울특별시,도봉구,일반국도,3,도봉로,2,서울특별시 도봉구 도봉로 941,,37.68837403,127.045344,도봉산역 1번출구 건너편,1,50,,,,2008,서울특별시경찰청,02-700-5031,8/19/2022
F4420,서울특별시,도봉구,특별시도,,도봉로,2,서울특별시 도봉구 쌍문동 103-6,서울특별시 도봉구 쌍문동 103-6,37.64588348,127.0326169,강북힘찬병원 건너편,1,50,,,,2008,서울특별시경찰청,02-700-5031,8/19/2022
F4421,서울특별시,마포구,특별시도,,월드컵로,1,서울특별시 마포구 월드컵로 36,,37.5526923,126.9124983,GS25 합정웰빙점 건너편,1,50,,,,2008,서울특별시경찰청,02-700-5031,8/19/2022
F4424,서울특별시,마포구,특별시도,,만리재로,2,서울특별시 마포구 만리재로 89,,37.5486026,126.959115,노블레스오피스텔 앞,1,50,,,,2008,서울특별시경찰청,02-700-5031,8/19/2022
F4425,서울특별시,구로구,특별시도,,남부순환로,2,서울특별시 구로구 구로동 692-4,서울특별시 구로구 구로동 692-4,37.48845942,126.8768618,구로IC 앞,1,50,,,,2008,서울특별시경찰청,02-700-5031,8/19/2022
F4426,서울특별시,강남구,특별시도,,논현로,1,서울특별시 강남구 논현로 50,,37.4750296,127.047735,한영빌딩 앞,1,50,,,,2008,서울특별시경찰청,02-700-5031,8/19/2022
F4430,서울특별시,강남구,고속국도,51,분당-내곡간 고속화도로,1,서울특별시 강남구 개포동 산 164-2,서울특별시 강남구 개포동 산 164-2,37.4743038,127.060405,구룡터널북단 후방 50m,1,80,,,,2008,서울특별시경찰청,02-700-5031,8/19/2022
F4730,서울특별시,구로구,특별시도,,남부순환로,2,서울특별시 구로구 남부순환로 775,,37.50156787,126.8471623,개봉1동사거리,2,50,,,,2009,서울특별시경찰청,02-700-5031,8/19/2022
F4732,서울특별시,성북구,특별시도,,동소문로,1,서울특별시 성북구 동소문로 72,,37.59177,127.013506,성북구청입구 교차로,2,50,,,,2009,서울특별시경찰청,02-700-5031,8/19/2022
F4733,서울특별시,동대문구,특별시도,,고산자로,1,서울특별시 동대문구 고산자로 379,,37.57364767,127.0377202,동대문구청사거리,2,50,,,,2009,서울특별시경찰청,02-700-5031,8/19/2022
F4734,서울특별시,강동구,일반국도,43,천호대로,2,서울특별시 강동구 천호대로 1106,,37.53486622,127.134362,강동성심병원 앞 교차로,2,50,,,,2009,서울특별시경찰청,02-700-5031,8/19/2022
F4738,서울특별시,성북구,특별시도,,한천로,1,서울특별시 성북구 한천로 636,,37.61533339,127.058516,장위119안전센터 앞,2,50,,,,2009,서울특별시경찰청,02-700-5031,8/19/2022
F4830,서울특별시,영등포구,특별시도,,영등포로,1,서울특별시 영등포구 영등포로 271-2,,37.51872554,126.9117337,영등포로터리,2,50,,,,2009,서울특별시경찰청,02-700-5031,8/19/2022
F5362,서울특별시,강서구,특별시도,,등촌로,2,서울특별시 강서구 등촌로 137,,37.54191308,126.8626072,등마초교 입구,2,50,,,2,2009,서울특별시경찰청,02-700-5031,8/19/2022
F5363,서울특별시,양천구,특별시도,,등촌로,1,서울특별시 양천구 등촌로 142,,37.54273046,126.8631374,등마초교 건너편,2,50,,,2,2009,서울특별시경찰청,02-700-5031,8/19/2022
F5375,서울특별시,용산구,특별시도,,서빙고로,1,서울특별시 용산구 서빙고로 246,,37.519975,126.990862,서빙고역 교차로,2,50,,,,2009,서울특별시경찰청,02-700-5031,8/19/2022
F5384,서울특별시,강동구,특별시도,,양재대로,1,서울특별시 강동구 양재대로 1440,,37.53438895,127.1391394,길동사거리,2,50,,,,2009,서울특별시경찰청,02-700-5031,8/19/2022
F5388,서울특별시,중구,특별시도,,을지로,2,서울특별시 중구 을지로 35,,37.56649182,126.9818658,을지로1가 교차로,2,50,,,,2009,서울특별시경찰청,02-700-5031,8/19/2022
F5390,서울특별시,종로구,일반국도,6,종로,1,서울특별시 종로구 종로 344,,37.57272286,127.0160832,동묘앞역 교차로,2,50,,,,2009,서울특별시경찰청,02-700-5031,8/19/2022
F5393,서울특별시,양천구,특별시도,,신월로,1,서울특별시 양천구 신정동 1316-8,,37.513825,126.828996,신정이펜하우스3단지 앞 사거리,2,50,,,,2009,서울특별시경찰청,02-700-5031,8/19/2022
F5394,서울특별시,동작구,특별시도,,장승배기로,2,서울특별시 동작구 장승배기로 11-1,,37.49962,126.9429971,신상도초교 건너편,2,30,,,2,2009,서울특별시경찰청,02-700-5031,8/19/2022
F5395,서울특별시,강남구,특별시도,,선릉로,2,서울특별시 강남구 선릉로 209,,37.4926466,127.0533774,대도초교 앞,2,50,,,2,2009,서울특별시경찰청,02-700-5031,8/19/2022
F5398,서울특별시,중랑구,특별시도,,사가정로,1,서울특별시 중랑구 사가정로 326,,37.581231,127.0807092,장안교사거리,2,50,,,,2009,서울특별시경찰청,02-700-5031,8/19/2022
F5401,서울특별시,강동구,특별시도,,성안로,1,서울특별시 강동구 성안로 200,,37.541057,127.1378287,천동초교앞 삼거리,2,30,,,2,2009,서울특별시경찰청,02-700-5031,8/19/2022
F5402,서울특별시,강남구,특별시도,,선릉로,1,서울특별시 강남구 대치동 888-1,,37.495228,127.053598,대치아이파크 앞,2,50,,,,2009,서울특별시경찰청,02-700-5031,8/19/2022
F5404,서울특별시,동대문구,특별시도,,장안벚꽃로,2,서울특별시 동대문구 장안벚꽃로 205,,37.57855999,127.0757616,은석초교 앞,1,30,,,2,2009,서울특별시경찰청,02-700-5031,8/19/2022
F5407,서울특별시,강남구,특별시도,,헌릉로,2,서울특별시 강남구 세곡동 389-5,서울특별시 강남구 세곡동 389-5,37.46476211,127.0943281,헌릉IC 앞,1,50,,,,2009,서울특별시경찰청,02-700-5031,8/19/2022
F5408,서울특별시,서초구,특별시도,,헌릉로,1,서울특별시 서초구 헌릉로 344,,37.4588448,127.0775524,내곡IC 앞,1,50,,,,2009,서울특별시경찰청,02-700-5031,8/19/2022
F5409,서울특별시,송파구,고속국도,88,올림픽대로,2,서울특별시 송파구 잠실동 1,서울특별시 송파구 잠실동 1,37.51832853,127.0730667,주경기장 앞,1,80,,,,2009,서울특별시경찰청,02-700-5031,8/19/2022
F5412,서울특별시,종로구,일반국도,48,사직로,1,서울특별시 종로구 사직로 70,,37.57404415,126.967268,광화문풍림스페이스본 아파트,1,50,,,,2009,서울특별시경찰청,02-700-5031,8/19/2022
F5414,서울특별시,동작구,고속국도,88,올림픽대로,2,서울특별시 동작구 동작동 316-2,서울특별시 동작구 동작동 316-2,37.50504513,126.9766603,노량대교 진입부,1,80,,,,2009,서울특별시경찰청,02-700-5031,8/19/2022
F5416,서울특별시,동작구,고속국도,88,올림픽대로,2,서울특별시 동작구 본동 477-1,서울특별시 동작구 본동 477-1,37.5153035,126.9522458,한강철교 앞,1,80,,,,2009,서울특별시경찰청,02-700-5031,8/19/2022
F5419,서울특별시,중랑구,특별시도,,면목로,2,서울특별시 중랑구 면목로 429,,37.59019347,127.0868261,면목초교 건너편,1,50,,,2,2009,서울특별시경찰청,02-700-5031,8/19/2022
F5420,서울특별시,성북구,특별시도,,종암로,2,서울특별시 성북구 종암로 83,,37.59769185,127.0347307,천주교종암동교회 건너편,1,50,,,,2009,서울특별시경찰청,02-700-5031,8/19/2022
F5426,서울특별시,강남구,고속국도,171,서울-용인고속도로,1,서울특별시 강남구 세곡동 산 52-46,서울특별시 강남구 세곡동 산 52-46,37.46318928,127.0932523,헌릉IC 진입전,1,60,,,,2009,서울특별시경찰청,02-700-5031,8/19/2022
F5427,서울특별시,동작구,특별시도,,사당로,2,서울특별시 동작구 사당로 136,,37.48915448,126.965561,반석블레스아파트 앞,1,50,,,,2009,서울특별시경찰청,02-700-5031,8/19/2022
F5428,서울특별시,성북구,특별시도,,종암로,1,서울특별시 성북구 종암로 80,,37.59743153,127.03544,종암동성당 앞,1,50,,,,2009,서울특별시경찰청,02-700-5031,8/19/2022
F5429,서울특별시,은평구,특별시도,,통일로,1,서울특별시 은평구 통일로 586,,37.59964368,126.9375026,녹번대림아파트 앞,1,50,,,,2009,서울특별시경찰청,02-700-5031,8/19/2022
F5430,서울특별시,중구,특별시도,,동호로,2,서울특별시 중구 동호로 161,,37.55281234,127.0117835,중구청소년수련관 앞,1,50,,,,2009,서울특별시경찰청,02-700-5031,8/19/2022
F5619,서울특별시,마포구,고속국도,70,강변북로,1,서울특별시 마포구 상암동 487-92,서울특별시 마포구 상암동 487-92,37.56397334,126.8847774,한강공원난지지구 앞,1,80,,,,2010,서울특별시경찰청,02-700-5031,8/19/2022
F5626,서울특별시,동작구,특별시도,,현충로,1,서울특별시 동작구 현충로 105,,37.50783722,126.9656085,명수대현대아파트 102동앞,2,50,,,2,2010,서울특별시경찰청,02-700-5031,8/19/2022
F5627,서울특별시,동작구,특별시도,,현충로,2,서울특별시 동작구 현충로 80,,37.5090905,126.9631596,중앙대입구 교차로,2,50,,,2,2010,서울특별시경찰청,02-700-5031,8/19/2022
F5630,서울특별시,중구,특별시도,,동호로,2,서울특별시 중구 장충동2가 200-100,,37.558826,127.006086,장충 교차로,2,50,,,,2010,서울특별시경찰청,02-700-5031,8/19/2022
F5631,서울특별시,동대문구,특별시도,,한천로,2,서울특별시 동대문구 한천로 425-1,,37.598573,127.0675393,쌍용아파트 104동 건너편,2,30,,,2,2010,서울특별시경찰청,02-700-5031,8/19/2022
F5632,서울특별시,성북구,특별시도,,정릉로,1,서울특별시 성북구 정릉로 454,,37.603285,127.0316301,종암사거리,2,50,,,,2010,서울특별시경찰청,02-700-5031,8/19/2022
F5636,서울특별시,종로구,특별시도,,진흥로,2,서울특별시 종로구 진흥로 480,,37.60584046,126.9602761,신영119안전센터 건너편,2,50,,,,2010,서울특별시경찰청,02-700-5031,8/19/2022
F5639,서울특별시,중구,특별시도,,퇴계로,1,서울특별시 중구 퇴계로 100,,37.56020699,126.9829265,회현사거리,2,50,,,,2010,서울특별시경찰청,02-700-5031,8/19/2022
F5643,서울특별시,영등포구,특별시도,,선유로,1,서울특별시 영등포구 선유로 270,,37.53633216,126.8987743,양평동사거리,2,50,,,,2010,서울특별시경찰청,02-700-5031,8/19/2022
F5645,서울특별시,구로구,일반국도,46,경인로,1,서울특별시 구로구 경인로 334,,37.49709148,126.8572337,개봉사거리,2,50,,,,2010,서울특별시경찰청,02-700-5031,8/19/2022
F5647,서울특별시,마포구,일반국도,6,신촌로,1,서울특별시 마포구 신촌로 106,,37.55503129,126.9377942,신촌오거리,2,50,,,,2010,서울특별시경찰청,02-700-5031,8/19/2022
F5648,서울특별시,서대문구,특별시도,,통일로,1,서울특별시 서대문구 통일로 416,,37.58660301,126.946988,홍제삼거리,2,50,,,,2010,서울특별시경찰청,02-700-5031,8/19/2022
F5865,서울특별시,양천구,특별시도,,오목로,1,서울특별시 양천구 오목로 22,,37.52139142,126.8403763,강서초교사거리,2,30,,,2,2010,서울특별시경찰청,02-700-5031,8/19/2022
F5866,서울특별시,강서구,특별시도,,방화대로,1,서울특별시 강서구 방화대로 319,,37.56919887,126.8161774,송화초등학교 앞,2,50,,,2,2010,서울특별시경찰청,02-700-5031,8/19/2022
F5867,서울특별시,강서구,일반국도,6,공항대로,1,서울특별시 강서구 공항대로 521,,37.55156765,126.8644078,등촌삼거리,2,50,,,,2010,서울특별시경찰청,02-700-5031,8/19/2022
F5868,서울특별시,강서구,특별시도,,강서로,2,서울특별시 강서구 강서로 63,,37.5332369,126.845549,화곡터널입구 교차로,2,50,,,,2010,서울특별시경찰청,02-700-5031,8/19/2022
F5870,서울특별시,양천구,특별시도,,남부순환로,1,서울특별시 양천구 남부순환로 303,,37.53959273,126.8262153,화곡로입구 교차로,2,50,,,,2010,서울특별시경찰청,02-700-5031,8/19/2022
F5871,서울특별시,양천구,특별시도,,신월로,1,서울특별시 양천구 신월로 200,,37.52008282,126.8448493,신신월주유소 건너편,2,50,,,,2010,서울특별시경찰청,02-700-5031,8/19/2022
F5874,서울특별시,양천구,특별시도,,목동로,2,서울특별시 양천구 목동로 193,,37.52570868,126.864113,목동오거리,2,50,,,,2010,서울특별시경찰청,02-700-5031,8/19/2022
F5876,서울특별시,구로구,특별시도,,공원로,2,서울특별시 구로구 공원로 83,,37.50364624,126.8875442,미래초교앞 교차로,2,30,,,2,2010,서울특별시경찰청,02-700-5031,8/19/2022
F5878,서울특별시,구로구,특별시도,,구로중앙로,2,서울특별시 구로구 경인로 558,,37.50243573,126.8797605,구로역 교차로,2,50,,,,2010,서울특별시경찰청,02-700-5031,8/19/2022
F5880,서울특별시,구로구,일반국도,46,경인로,2,서울특별시 구로구 경인로 611-7,,37.50641601,126.8838121,신도림6차e편한세상 902동 앞,2,50,,,,2010,서울특별시경찰청,02-700-5031,8/19/2022
F5881,서울특별시,금천구,특별시도,,시흥대로,2,서울특별시 금천구 시흥대로 399,,37.46935918,126.8970019,금천우체국 교차로,2,50,,,,2010,서울특별시경찰청,02-700-5031,8/19/2022
F5884,서울특별시,영등포구,특별시도,,시흥대로,2,서울특별시 영등포구 시흥대로 681,,37.49231066,126.9087284,대림삼거리,2,50,,,,2010,서울특별시경찰청,02-700-5031,8/19/2022
F5885,서울특별시,양천구,특별시도,,안양천로,1,서울특별시 양천구 안양천로 812,,37.51837597,126.8776902,목동현대아파트 104동 건너편,2,50,,,,2010,서울특별시경찰청,02-700-5031,8/19/2022
F5889,서울특별시,동작구,특별시도,,사당로,1,서울특별시 동작구 사당로 18-1,,37.49518192,126.9564432,숭실대형남공학관 앞,2,50,,,,2010,서울특별시경찰청,02-700-5031,8/19/2022
F5890,서울특별시,동작구,특별시도,,상도로,1,서울특별시 동작구 상도로 293,,37.50163381,126.9493491,GS25상도역점 앞,2,50,,,,2010,서울특별시경찰청,02-700-5031,8/19/2022
F5891,서울특별시,동작구,특별시도,,여의대방로,1,서울특별시 동작구 여의대방로 128,,37.49846478,126.9205327,대방천사거리,2,50,,,,2010,서울특별시경찰청,02-700-5031,8/19/2022
F5893,서울특별시,동작구,특별시도,,남부순환로,2,서울특별시 동작구 남부순환로 2059,,37.47691752,126.977537,신한은행 앞,2,50,,,,2010,서울특별시경찰청,02-700-5031,8/19/2022
F5894,서울특별시,관악구,특별시도,,남부순환로,2,서울특별시 관악구 남부순환로 1860,,37.47962478,126.9562858,원당초교입구 교차로,2,50,,,,2010,서울특별시경찰청,02-700-5031,8/19/2022
F5895,서울특별시,관악구,특별시도,,남부순환로,1,서울특별시 관악구 남부순환로 1817,,37.48164117,126.9521444,서울대입구역,2,50,,,,2010,서울특별시경찰청,02-700-5031,8/19/2022
F5896,서울특별시,관악구,특별시도,,호암로,1,서울특별시 관악구 호암로 520,,37.46411546,126.9318251,벽산블루밍아파트101동 앞,2,40,,,,2010,서울특별시경찰청,02-700-5031,8/19/2022
F5900,서울특별시,마포구,특별시도,,독막로,1,서울특별시 마포구 독막로 146,,37.54739821,126.929767,서강쌍용예가아파트 112동 건너편,2,50,,,,2010,서울특별시경찰청,02-700-5031,8/19/2022
F5901,서울특별시,마포구,특별시도,,월드컵로,2,서울특별시 마포구 월드컵로 365,,37.57246315,126.8870483,월드컵파크3단지 교차로,2,50,,,,2010,서울특별시경찰청,02-700-5031,8/19/2022
F5902,서울특별시,마포구,특별시도,,월드컵북로,2,서울특별시 마포구 월드컵북로 416,,37.58052679,126.8877266,월드컵파크5단지 교차로,2,50,,,,2010,서울특별시경찰청,02-700-5031,8/19/2022
F5904,서울특별시,마포구,일반국도,48,성산로,1,서울특별시 마포구 성산동 354-5,서울특별시 마포구 성산동 354-5,37.56286334,126.9039827,마포구청역사거리,2,50,,,,2010,서울특별시경찰청,02-700-5031,8/19/2022
F5908,서울특별시,마포구,특별시도,,월드컵북로,1,서울특별시 마포구 월드컵북로 74,,37.56060739,126.9163,경성고교입구 교차로,2,50,,,,2010,서울특별시경찰청,02-700-5031,8/19/2022
F5909,서울특별시,서대문구,일반국도,6,신촌로,2,서울특별시 서대문구 신촌로 145,,37.55681593,126.942123,신촌기차역입구 교차로,2,50,,,,2010,서울특별시경찰청,02-700-5031,8/19/2022
F5913,서울특별시,서대문구,특별시도,,연희로,2,서울특별시 서대문구 연희로 173,,37.57249887,126.9350607,서대문소방서 건너편,2,50,,,,2010,서울특별시경찰청,02-700-5031,8/19/2022
F5914,서울특별시,서대문구,특별시도,,통일로,2,서울특별시 서대문구 통일로 113,,37.56508532,126.9670743,서대문역사거리,2,50,,,,2010,서울특별시경찰청,02-700-5031,8/19/2022
F5916,서울특별시,영등포구,일반국도,46,도림로,2,서울특별시 영등포구 도림로 415,,37.51325696,126.8964817,문래동사거리,2,50,,,,2010,서울특별시경찰청,02-700-5031,8/19/2022
F5917,서울특별시,은평구,특별시도,,통일로,1,서울특별시 은평구 통일로 708,,37.60923882,126.9312642,서울혁신파크 교차로,2,50,,,,2010,서울특별시경찰청,02-700-5031,8/19/2022
F5925,서울특별시,종로구,특별시도,,율곡로,2,서울특별시 종로구 율곡로 166,,37.5758064,126.996955,원남동사거리,2,50,,,,2010,서울특별시경찰청,02-700-5031,8/19/2022
F5928,서울특별시,용산구,특별시도,,녹사평대로,2,서울특별시 용산구 녹사평대로 73,,37.52361192,126.9927909,52게이트앞 삼거리,2,50,,,,2010,서울특별시경찰청,02-700-5031,8/19/2022
F5929,서울특별시,용산구,특별시도,,녹사평대로,2,서울특별시 용산구 녹사평대로 234,,37.53849833,126.9871582,재정관리단 교차로,2,50,,,,2010,서울특별시경찰청,02-700-5031,8/19/2022
F5930,서울특별시,용산구,특별시도,,한강대로,1,서울특별시 용산구 한강대로 26,,37.52310219,126.9628808,한강대교북단 교차로,2,50,,,,2010,서울특별시경찰청,02-700-5031,8/19/2022
F5931,서울특별시,용산구,특별시도,,녹사평대로,1,서울특별시 용산구 녹사평대로 234,,37.538472,126.9871582,재정관리단앞 교차로,2,50,,,,2010,서울특별시경찰청,02-700-5031,8/19/2022
F5932,서울특별시,용산구,특별시도,,한강대로,1,서울특별시 용산구 한강대로 270,,37.542312,126.9730345,남영삼거리,2,50,,,,2010,서울특별시경찰청,02-700-5031,8/19/2022
F5933,서울특별시,용산구,특별시도,,한강대로,2,서울특별시 용산구 한강로2가 317,,37.529259,126.967693,신용산역삼거리,2,50,,,,2010,서울특별시경찰청,02-700-5031,8/19/2022
F5939,서울특별시,서초구,특별시도,,남부순환로,2,서울특별시 서초구 남부순환로 2395,,37.48067181,127.0123672,예술의전당앞사거리,2,50,,,,2010,서울특별시경찰청,02-700-5031,8/19/2022
F5942,서울특별시,영등포구,특별시도,,여의대방로,2,서울특별시 영등포구 여의대방로 383,,37.51934369,126.9315042,한양아파트앞 교차로,2,50,,,,2010,서울특별시경찰청,02-700-5031,8/19/2022
F5946,서울특별시,강남구,특별시도,,남부순환로,2,서울특별시 강남구 남부순환로 2653,,37.48586782,127.0403271,양재전화국사거리,2,50,,,,2010,서울특별시경찰청,02-700-5031,8/19/2022
F5947,서울특별시,강남구,특별시도,,삼성로,1,서울특별시 강남구 삼성로 508,,37.50777396,127.0566328,포스코사거리,2,50,,,,2010,서울특별시경찰청,02-700-5031,8/19/2022
F5948,서울특별시,강남구,특별시도,,논현로,2,서울특별시 강남구 논현로 873,,37.52660081,127.0282355,압구정역 교차로,2,50,,,,2010,서울특별시경찰청,02-700-5031,8/19/2022
F5950,서울특별시,강남구,특별시도,,테헤란로,1,서울특별시 강남구 테헤란로 108,,37.49796957,127.0291232,강남역사거리,2,50,,,,2010,서울특별시경찰청,02-700-5031,8/19/2022
F5951,서울특별시,강동구,일반국도,43,천호대로,1,서울특별시 강동구 천호대로 1298,,37.53826544,127.1546194,생태공원앞 교차로,2,50,,,,2010,서울특별시경찰청,02-700-5031,8/19/2022
F5955,서울특별시,송파구,특별시도,,탄천동로,2,서울특별시 송파구 탄천동로 36,,37.51534342,127.0692513,삼성교동측 교차로,2,50,,,,2010,서울특별시경찰청,02-700-5031,8/19/2022
F5956,서울특별시,강동구,일반국도,43,조정대로,2,서울특별시 강동구 상일동 20-10,,37.549547,127.182677,상일IC 진입전,2,50,,,,2010,서울특별시경찰청,02-700-5031,8/19/2022
F5965,서울특별시,은평구,특별시도,,북한산로,2,서울특별시 은평구 진관동 289,서울특별시 은평구 진관동 289,37.65824239,126.9454044,북한산성입구 교차로,2,50,,,,2010,서울특별시경찰청,02-700-5031,8/19/2022
F5967,서울특별시,동대문구,일반국도,6,왕산로,2,서울특별시 동대문구 왕산로 303,,37.588886,127.051311,시조사삼거리,2,50,,,,2010,서울특별시경찰청,02-700-5031,8/19/2022
F5968,서울특별시,동대문구,일반국도,6,망우로,1,서울특별시 동대문구 망우로 131,,37.59184757,127.0674278,중랑교 교차로,2,50,,,,2010,서울특별시경찰청,02-700-5031,8/19/2022
F5970,서울특별시,강북구,특별시도,,도봉로,1,서울특별시 강북구 도봉로 296,,37.63491155,127.0236168,수유사거리,2,50,,,,2010,서울특별시경찰청,02-700-5031,8/19/2022
F5971,서울특별시,강북구,특별시도,,도봉로,2,서울특별시 강북구 도봉로 301,,37.63547025,127.0226733,수유삼거리,2,50,,,,2010,서울특별시경찰청,02-700-5031,8/19/2022
F5972,서울특별시,강북구,특별시도,,도봉로,2,서울특별시 강북구 도봉로 337,,37.63802609,127.025269,수유역 교차로,2,50,,,,2010,서울특별시경찰청,02-700-5031,8/19/2022
F5973,서울특별시,노원구,특별시도,,노원로,2,서울특별시 노원구 노원로 75,,37.62881715,127.082693,서울과학기술대 후문,2,50,,,,2010,서울특별시경찰청,02-700-5031,8/19/2022
F5975,서울특별시,노원구,특별시도,,노원로,1,서울특별시 노원구 노원로 130,,37.63519718,127.0873616,원자력병원입구사거리,2,50,,,,2010,서울특별시경찰청,02-700-5031,8/19/2022
F5976,서울특별시,도봉구,특별시도,,마들로,2,서울특별시 도봉구 마들로 659,,37.66914,127.0459326,도봉구청 교차로,2,50,,,,2010,서울특별시경찰청,02-700-5031,8/19/2022
F5978,서울특별시,도봉구,특별시도,,도봉로,1,서울특별시 도봉구 도봉로 458,,37.646577,127.0338736,창동시장입구 교차로,2,50,,,,2010,서울특별시경찰청,02-700-5031,8/19/2022
F5979,서울특별시,도봉구,특별시도,,방학로,1,서울특별시 도봉구 방학로 49,,37.66244567,127.046804,서울문화고교 교차로,2,50,,,,2010,서울특별시경찰청,02-700-5031,8/19/2022
F5980,서울특별시,성북구,특별시도,,한천로,2,서울특별시 성북구 한천로 509,,37.60698616,127.0657342,석관중 교차로,2,50,,,,2010,서울특별시경찰청,02-700-5031,8/19/2022
F5981,서울특별시,성북구,특별시도,,동소문로,2,서울특별시 성북구 동소문로 327,,37.609032,127.0297352,미아사거리,2,50,,,,2010,서울특별시경찰청,02-700-5031,8/19/2022
F5983,서울특별시,관악구,특별시도,,신림로,1,서울특별시 관악구 신림로 114,,37.47200331,126.9367542,신성초교앞 교차로,2,50,,,2,2010,서울특별시경찰청,02-700-5031,8/19/2022
F5984,서울특별시,성북구,특별시도,,한천로,2,서울특별시 성북구 한천로 595,,37.6121808,127.0610595,장위사거리,2,50,,,,2010,서울특별시경찰청,02-700-5031,8/19/2022
F5985,서울특별시,성북구,특별시도,,돌곶이로,2,서울특별시 성북구 돌곶이로 77,,37.61032674,127.0573056,돌곶이역 교차로,2,50,,,,2010,서울특별시경찰청,02-700-5031,8/19/2022
F5986,서울특별시,양천구,특별시도,,목동남로,1,서울특별시 양천구 목동남로 93,,37.51151538,126.8688757,갈산초교 후문 앞,2,30,,,2,2010,서울특별시경찰청,02-700-5031,8/19/2022
F5987,서울특별시,성북구,특별시도,,정릉로,2,서울특별시 성북구 정릉로 272,,37.60313609,127.013608,아리랑고개입구 교차로,2,50,,,2,2010,서울특별시경찰청,02-700-5031,8/19/2022
F6145,서울특별시,서초구,특별시도,,서운로,1,서울특별시 서초구 서운로 178,,37.49904877,127.0248915,서초초교 앞,2,30,,,2,2011,서울특별시경찰청,02-700-5031,8/19/2022
F6147,서울특별시,서초구,특별시도,,헌릉로,2,서울특별시 서초구 헌릉로 260,,37.45571728,127.0688514,서울특별시립어린이병원 건너편,1,50,,,,2011,서울특별시경찰청,02-700-5031,8/19/2022
F6608,서울특별시,송파구,특별시도,,올림픽로,1,서울특별시 송파구 올림픽로 489,,37.52606615,127.117488,올림픽대교남단사거리,2,50,,,,2011,서울특별시경찰청,02-700-5031,8/19/2022
F6611,서울특별시,강남구,특별시도,,압구정로,1,서울특별시 강남구 압구정로 302,,37.52880832,127.034161,성수대교남단사거리 한양주유소앞,2,50,,,,2011,서울특별시경찰청,02-700-5031,8/19/2022
F6612,서울특별시,강남구,특별시도,,언주로,1,서울특별시 강남구 언주로 804,,37.52222746,127.033991,도산공원사거리,2,50,,,,2011,서울특별시경찰청,02-700-5031,8/19/2022
F6613,서울특별시,노원구,특별시도,,노원로,2,서울특별시 노원구 노원로 29,,37.62479317,127.0843379,공릉8단지 청솔아파트앞,2,50,,,,2011,서울특별시경찰청,02-700-5031,8/19/2022
F6614,서울특별시,서초구,특별시도,,사평대로,1,서울특별시 서초구 사평대로 253,,37.50524853,127.0110376,삼호가든사거리,2,50,,,,2011,서울특별시경찰청,02-700-5031,8/19/2022
F6618,서울특별시,양천구,특별시도,,남부순환로,2,서울특별시 양천구 남부순환로 432,,37.52930959,126.832309,서서울호수공원사거리,2,50,,,,2011,서울특별시경찰청,02-700-5031,8/19/2022
F6620,서울특별시,양천구,특별시도,,남부순환로,2,서울특별시 양천구 남부순환로 516,,37.52236006,126.8364689,오솔길공원 앞,2,50,,,,2011,서울특별시경찰청,02-700-5031,8/19/2022
F6621,서울특별시,성북구,특별시도,,종암로,1,서울특별시 성북구 종암로 152,,37.60374123,127.0324077,종암사거리,2,50,,,,2011,서울특별시경찰청,02-700-5031,8/19/2022
F6622,서울특별시,광진구,특별시도,,광나루로,2,서울특별시 광진구 광나루로 404,,37.5469693,127.0744061,어린이대공원역사거리,2,50,,,,2011,서울특별시경찰청,02-700-5031,8/19/2022
F6624,서울특별시,용산구,특별시도,,원효로,2,서울특별시 용산구 원효로 40,,37.53391601,126.9493026,강변삼성스위트아파트 103동 앞,2,50,,,,2011,서울특별시경찰청,02-700-5031,8/19/2022
F6625,서울특별시,동대문구,특별시도,,장한로,1,서울특별시 동대문구 장한로 140,,37.57285291,127.072155,장안동사거리,2,50,,,,2011,서울특별시경찰청,02-700-5031,8/19/2022
F6626,서울특별시,노원구,일반국도,3,동일로,1,서울특별시 노원구 동일로 1414,,37.65527873,127.0613917,노원역사거리,2,50,,,,2011,서울특별시경찰청,02-700-5031,8/19/2022
F6627,서울특별시,구로구,일반국도,46,경인로,2,서울특별시 구로구 경인로 233,,37.49762121,126.846388,예성라온팰리스아파트 103동,2,50,,,,2011,서울특별시경찰청,02-700-5031,8/19/2022
F6628,서울특별시,강북구,특별시도,,삼양로,1,서울특별시 강북구 삼양로 118-1,,37.61453065,127.0223529,래미안트리베라1차아파트 건너편,2,50,,,2,2011,서울특별시경찰청,02-700-5031,8/19/2022
F6630,서울특별시,양천구,특별시도,,목동로,1,서울특별시 양천구 목동로 31,,37.51237156,126.8702299,갈산초교 정문 건너편,2,50,,,2,2011,서울특별시경찰청,02-700-5031,8/19/2022
F6631,서울특별시,강동구,특별시도,,동남로,2,서울특별시 강동구 동남로 832,,37.54914056,127.1577731,한영외고 맞은편,1,50,,,,2011,서울특별시경찰청,02-700-5031,8/19/2022
F6632,서울특별시,강동구,특별시도,,강동대로,2,서울특별시 강동구 강동대로 155,,37.52614008,127.1243007,올림픽공원북2문사거리 방향,1,50,,,,2011,서울특별시경찰청,02-700-5031,8/19/2022
F6633,서울특별시,동작구,특별시도,,노량진로,2,서울특별시 동작구 노량진로 9,,37.51298,126.9266893,대방역 1번출구 앞,1,50,,,,2011,서울특별시경찰청,02-700-5031,8/19/2022
F6634,서울특별시,영등포구,특별시도,,노들로,1,서울특별시 영등포구 당산동 101-14,서울특별시 영등포구 당산동 101-14,37.53416724,126.906404,래미안당산1차 103동 건너편,1,50,,,,2011,서울특별시경찰청,02-700-5031,8/19/2022
F6635,서울특별시,성동구,고속국도,30,내부순환로,1,서울특별시 성동구 마장동 610-13,서울특별시 성동구 마장동 610-13,37.572151,127.0387462,마장램프 400m 전방,1,70,,,,2011,서울특별시경찰청,02-700-5031,8/19/2022
F6636,서울특별시,성동구,고속국도,61,동부간선도로,2,서울특별시 성동구 송정동 75-20,서울특별시 성동구 송정동 75-20,37.54907936,127.0594538,금호베스트빌아파트,1,80,,,,2011,서울특별시경찰청,02-700-5031,8/19/2022
F6637,서울특별시,동대문구,고속국도,30,내부순환로,2,서울특별시 동대문구 용두동 47-12,서울특별시 동대문구 용두동 47-12,37.57230614,127.0349099,마장램프출구,1,70,,,,2011,서울특별시경찰청,02-700-5031,8/19/2022
F6638,서울특별시,중랑구,특별시도,,용마산로,2,서울특별시 중랑구 용마산로 228,,37.57416749,127.0883012,용마산역 2번출구 건너편,1,50,,,,2011,서울특별시경찰청,02-700-5031,8/19/2022
F6640,서울특별시,성북구,특별시도,,북부간선도로,1,서울특별시 성북구 석관동 341-90,서울특별시 성북구 석관동 341-90,37.60859015,127.0528751,석관레미안아파트 109동 앞,1,70,,,,2011,서울특별시경찰청,02-700-5031,8/19/2022
F6641,서울특별시,강동구,특별시도,,강동대로,1,서울특별시 강동구 강동대로 155,,37.52614008,127.1243007,올림픽대교 방향,1,50,,,,2011,서울특별시경찰청,02-700-5031,8/19/2022
F6689,서울특별시,서초구,특별시도,,신반포로,2,서울특별시 서초구 신반포로 270,,37.50786022,127.011582,반포자이아파트 114동 건너편,2,50,,,,2012,서울특별시경찰청,02-700-5031,8/19/2022
F6690,서울특별시,서초구,특별시도,,서초중앙로,1,서울특별시 서초구 서초중앙로 238,,37.50296195,127.012071,가든리체프라자 앞,2,50,,,,2012,서울특별시경찰청,02-700-5031,8/19/2022
F6691,서울특별시,서초구,특별시도,,남부순환로,1,서울특별시 서초구 남부순환로 2183,,37.47511676,126.9910912,방배래미안타워 102동 앞,2,50,,,,2012,서울특별시경찰청,02-700-5031,8/19/2022
F6692,서울특별시,강남구,특별시도,,논현로,2,서울특별시 강남구 논현로 847,,37.524613,127.0280876,압구정고가 남단,1,50,,,,2012,서울특별시경찰청,02-700-5031,8/19/2022
F6827,서울특별시,강남구,특별시도,,헌릉로,1,서울특별시 강남구 헌릉로 623,,37.46517604,127.1073624,대왕파출소 건너편,2,50,,,,2012,서울특별시경찰청,02-700-5031,8/19/2022
F6828,서울특별시,강남구,특별시도,,헌릉로,2,서울특별시 강남구 헌릉로 569,,37.46575802,127.1012262,은곡마을 앞,2,50,,,,2012,서울특별시경찰청,02-700-5031,8/19/2022
F6829,서울특별시,은평구,특별시도,,진흥로,2,서울특별시 은평구 진흥로 267,,37.61185227,126.938868,북한산래미안아파트 앞,2,50,,,,2012,서울특별시경찰청,02-700-5031,8/19/2022
F6889,서울특별시,강남구,일반국도,47,영동대로,1,서울특별시 강남구 영동대로 740,,37.52435413,127.055316,영동대교남단사거리,2,50,,,,2013,서울특별시경찰청,02-700-5031,8/19/2022
F6890,서울특별시,중랑구,일반국도,6,망우로,1,서울특별시 중랑구 망우로 436,,37.59954904,127.1007221,망우사거리,2,50,,,,2013,서울특별시경찰청,02-700-5031,8/19/2022
F6891,서울특별시,강북구,특별시도,,도봉로,2,서울특별시 강북구 도봉로 87,,37.61697,127.0294991,삼양입구 교차로,2,50,,,,2013,서울특별시경찰청,02-700-5031,8/19/2022
F6892,서울특별시,용산구,특별시도,,독서당로,2,서울특별시 용산구 독서당로 39,,37.53159589,127.0070001,시립용산노인종합복지관,2,30,,,1,2013,서울특별시경찰청,02-700-5031,8/19/2022
F6893,서울특별시,금천구,특별시도,,남부순환로,1,서울특별시 금천구 남부순환로 1384,,37.47969,126.9044857,구로전화국 교차로,2,50,,,,2013,서울특별시경찰청,02-700-5031,8/19/2022
F6894,서울특별시,동대문구,일반국도,6,왕산로,1,서울특별시 동대문구 왕산로 220,,37.581313,127.047218,청량리역 교차로,2,50,,,,2013,서울특별시경찰청,02-700-5031,8/19/2022
F6895,서울특별시,강서구,일반국도,6,공항대로,2,서울특별시 강서구 공항대로 414,,37.55510589,126.8535597,강서구청입구 교차로,2,50,,,,2013,서울특별시경찰청,02-700-5031,8/19/2022
F6896,서울특별시,동작구,특별시도,,동작대로,2,서울특별시 동작구 동작대로 89,,37.48461403,126.9816657,이수역사거리,2,50,,,,2013,서울특별시경찰청,02-700-5031,8/19/2022
F6897,서울특별시,도봉구,특별시도,,도봉로,1,서울특별시 도봉구 도봉로 628,,37.66034188,127.0421136,바로선병원 앞,1,50,,,,2013,서울특별시경찰청,02-700-5031,8/19/2022
F6898,서울특별시,은평구,일반국도,1,통일로,1,서울특별시 은평구 통일로 1080,,37.63923423,126.9175304,구파발사거리,2,50,,,,2013,서울특별시경찰청,02-700-5031,8/19/2022
F6899,서울특별시,성동구,고속국도,30,내부순환로,2,서울특별시 성동구 마장동 802-1,서울특별시 성동구 마장동 802-1,37.5671118,127.0471177,사근램프,1,80,,,,2013,서울특별시경찰청,02-700-5031,8/19/2022
F6900,서울특별시,중구,특별시도,,남대문로,1,서울특별시 중구 남대문로 39,,37.5625152,126.9797235,한국은행 교차로,2,50,,,,2013,서울특별시경찰청,02-700-5031,8/19/2022
F6901,서울특별시,동대문구,일반국도,6,왕산로,1,서울특별시 동대문구 왕산로 4,,37.575652,127.0240428,신설동 교차로,2,50,,,,2013,서울특별시경찰청,02-700-5031,8/19/2022
F6902,서울특별시,성동구,특별시도,,천호대로,2,서울특별시 성동구 용답동 224-3,,37.561186,127.064966,장한평역사거리,2,50,,,,2013,서울특별시경찰청,02-700-5031,8/19/2022
F6903,서울특별시,강남구,특별시도,,삼성로,1,서울특별시 강남구 삼성로 706,,37.51934248,127.050321,청담공원 앞 교차로,2,50,,,,2013,서울특별시경찰청,02-700-5031,8/19/2022
F7001,서울특별시,서초구,특별시도,,남부순환로,1,서울특별시 서초구 남부순환로 2558,,37.48359736,127.0296917,서초구청사거리,2,50,,,,2013,서울특별시경찰청,02-700-5031,8/19/2022
F7002,서울특별시,서초구,특별시도,,효령로,2,서울특별시 서초구 효령로 289,,37.48512949,127.0158449,남부터미널 교차로,2,50,,,,2013,서울특별시경찰청,02-700-5031,8/19/2022
F7291,서울특별시,강북구,특별시도,,월계로,2,서울특별시 성북구 당위동 231-204,,37.613863,127.038052,에스오일 동방주유소 건너편,1,50,,,,2013,서울특별시경찰청,02-700-5031,8/19/2022
F7292,서울특별시,동작구,특별시도,,도림천로,1,서울특별시 관악구 신림동 499,서울특별시 관악구 신림동 499,37.48826333,126.9150426,보라매고가 신대방역,1,50,,,,2013,서울특별시경찰청,02-700-5031,8/19/2022
F7293,서울특별시,강남구,고속국도,88,올림픽대로,2,서울특별시 강남구 삼성동 81,서울특별시 강남구 삼성동 81,37.52034092,127.063303,청담도로공원 앞,1,80,,,,2013,서울특별시경찰청,02-700-5031,8/19/2022
F7294,서울특별시,동대문구,특별시도,,장안벚꽃로,2,서울특별시 동대문구 장안벚꽃로 67,,37.56653099,127.0734724,동대문구민회관 앞,1,50,,,,2013,서울특별시경찰청,02-700-5031,8/19/2022
F7295,서울특별시,광진구,일반국도,3,자양로,1,서울특별시 광진구 자양로 30,,37.53109154,127.0867963,광양중 건너편,1,50,,,,2013,서울특별시경찰청,02-700-5031,8/19/2022
F7296,서울특별시,종로구,특별시도,,평창문화로,2,서울특별시 종로구 평창문화로 151,,37.61058458,126.9757624,상명대 박물관 앞,1,50,,,,2013,서울특별시경찰청,02-700-5031,8/19/2022
F7297,서울특별시,광진구,고속국도,70,강변북로,2,서울특별시 광진구 광장동 574-1,서울특별시 광진구 광장동 574-1,37.538713,127.100648,광장현대아파트 506동 앞,1,80,,,,2013,서울특별시경찰청,02-700-5031,8/19/2022
F7298,서울특별시,금천구,특별시도,,호암로,1,서울특별시 금천구 호암로 192,,37.44613958,126.9221188,벽산아파트 505동 건너편,1,40,,,,2013,서울특별시경찰청,02-700-5031,8/19/2022
F7299,서울특별시,종로구,특별시도,,자하문로,2,서울특별시 종로구 자하문로 152,,37.58966656,126.967545,자하문터널 앞,1,50,,,,2013,서울특별시경찰청,02-700-5031,8/19/2022
F7300,서울특별시,영등포구,고속국도,88,올림픽대로,2,서울특별시 영등포구 양화동 1-43,서울특별시 영등포구 양화동 1-43,37.54790297,126.8877116,성산대교 밑,1,80,,,,2013,서울특별시경찰청,02-700-5031,8/19/2022
F7301,서울특별시,은평구,특별시도,,가좌로,1,서울특별시 은평구 가좌로 192,,37.588099,126.9200741,응암동성당 앞,2,50,,,,2013,서울특별시경찰청,02-700-5031,8/19/2022
F7302,서울특별시,동대문구,일반국도,6,왕산로,2,서울특별시 동대문구 왕산로 61,,37.57802042,127.0300389,용두동사거리,2,50,,,,2013,서울특별시경찰청,02-700-5031,8/19/2022
F7304,서울특별시,서대문구,일반국도,48,성산로,2,서울특별시 서대문구 성산로 291,,37.5667279,126.9226382,모래내고가차도종점,2,50,,,,2013,서울특별시경찰청,02-700-5031,8/19/2022
F7305,서울특별시,양천구,특별시도,,안양천로,1,서울특별시 양천구 안양천로 1092,,37.53890713,126.8862041,목마공원 교차로,2,50,,,,2013,서울특별시경찰청,02-700-5031,8/19/2022
F7306,서울특별시,영등포구,일반국도,46,여의대로,2,서울특별시 영등포구 여의대로 122-2,,37.52795712,126.9285161,마포대교사거리,2,50,,,,2013,서울특별시경찰청,02-700-5031,8/19/2022
F7307,서울특별시,금천구,일반국도,1,시흥대로,2,서울특별시 금천구 시흥대로 97,,37.44468212,126.9010724,시흥유통상가 앞,2,50,,,,2013,서울특별시경찰청,02-700-5031,8/19/2022
F7308,서울특별시,서대문구,특별시도,,수색로,1,서울특별시 서대문구 수색로 102,,37.57286602,126.90837,요진주상복합 앞,2,50,,,,2013,서울특별시경찰청,02-700-5031,8/19/2022
F7309,서울특별시,용산구,특별시도,,녹사평대로,1,서울특별시 용산구 녹사평대로 66,,37.52470018,126.9933004,한강중교앞 교차로,2,50,,,,2013,서울특별시경찰청,02-700-5031,8/19/2022
F7310,서울특별시,중구,특별시도,,세종대로,2,서울특별시 중구 세종대로 99,,37.56616815,126.9739838,대한문 앞,2,50,,,,2013,서울특별시경찰청,02-700-5031,8/19/2022
F7311,서울특별시,성북구,특별시도,,안암로,1,서울특별시 성북구 제기동 1054,,37.582563,127.029616,안암오거리,2,50,,,,2013,서울특별시경찰청,02-700-5031,8/19/2022
F7312,서울특별시,은평구,특별시도,,통일로,2,서울특별시 은평구 통일로 793,,37.61441879,126.9228204,동명여고,2,50,,,,2013,서울특별시경찰청,02-700-5031,8/19/2022
F7450,서울특별시,서초구,특별시도,,태봉로,1,서울특별시 서초구 태봉로 58,,37.46373901,127.0245988,서초네이처힐 504동 앞,2,50,,,2,2014,서울특별시경찰청,02-700-5031,8/19/2022
F7451,서울특별시,서초구,특별시도,,태봉로,2,서울특별시 서초구 태봉로 59,,37.46471047,127.0237693,영동중학교 앞,2,50,,,2,2014,서울특별시경찰청,02-700-5031,8/19/2022
F7452,서울특별시,서초구,특별시도,,동작대로,1,서울특별시 서초구 동작대로 168,,37.49150541,126.9830199,경문고교 교차로,2,50,,,,2014,서울특별시경찰청,02-700-5031,8/19/2022
F7453,서울특별시,서초구,특별시도,,헌릉로,1,서울특별시 서초구 헌릉로 25,,37.46425803,127.0454423,청계산입구삼거리,2,50,,,,2014,서울특별시경찰청,02-700-5031,8/19/2022
F7454,서울특별시,광진구,특별시도,,구의강변로,1,서울특별시 광진구 구의강변로 84,,37.53734087,127.0938665,세양아파트 앞,2,30,,,2,2014,서울특별시경찰청,02-700-5031,8/19/2022
F7536,서울특별시,성북구,특별시도,,삼양로,2,서울특별시 성북구 삼양로 75,,37.609888,127.022593,미아초교 앞,2,50,,,2,2014,서울특별시경찰청,02-700-5031,8/19/2022
F7537,서울특별시,구로구,특별시도,,안양천로,2,서울특별시 양천구 신정동 330-8,,37.504614,126.870686,구로제니스스포츠클럽 앞,2,50,,,,2014,서울특별시경찰청,02-700-5031,8/19/2022
F7669,서울특별시,강동구,고속국도,88,올림픽대로,2,서울특별시 강동구 암사동 614-2,서울특별시 강동구 암사동 614-2,37.55517834,127.12438,광진교 1Km전,1,80,,,,2014,서울특별시경찰청,02-700-5031,8/19/2022
F7670,서울특별시,금천구,일반국도,1,시흥대로,2,서울특별시 금천구 시흥대로 239,,37.45521294,126.8999472,시흥사거리 100M 전,1,50,,,,2014,서울특별시경찰청,02-700-5031,8/19/2022
F7671,서울특별시,강서구,일반국도,6,공항대로,2,서울특별시 강서구 공항동 53-44,,37.548558,126.869018,양동중학교 앞,1,50,,,,2014,서울특별시경찰청,02-700-5031,8/19/2022
F7672,서울특별시,성북구,특별시도,,화랑로,1,서울특별시 성북구 화랑로 192,,37.60768331,127.051869,맑음샘광천교회 앞,1,50,,,,2014,서울특별시경찰청,02-700-5031,8/19/2022
F7673,서울특별시,성북구,특별시도,,동소문로,1,서울특별시 성북구 동소문로 186,,37.59859897,127.0220098,성북성심병원 건너편,1,50,,,2,2014,서울특별시경찰청,02-700-5031,8/19/2022
F7674,서울특별시,서대문구,특별시도,,수색로,2,서울특별시 서대문구 수색로 102,,37.57286602,126.9083005,요진주상복합 건너편,1,50,,,,2014,서울특별시경찰청,02-700-5031,8/19/2022
F7675,서울특별시,동대문구,특별시도,,천호대로,1,서울특별시 동대문구 천호대로 453,,37.56122694,127.069418,스피드주유소 앞,1,50,,,,2014,서울특별시경찰청,02-700-5031,8/19/2022
F7676,서울특별시,용산구,고속국도,70,강변북로,2,서울특별시 용산구 이촌동 173-1,서울특별시 용산구 이촌동 173-1,37.52657094,126.9531866,한강철교 300m 전,1,80,,,,2014,서울특별시경찰청,02-700-5031,8/19/2022
F7677,서울특별시,광진구,고속국도,70,강변북로,1,서울특별시 광진구 광장동 557,서울특별시 광진구 광장동 557,37.54678707,127.1104786,광진교밑,1,80,,,,2014,서울특별시경찰청,02-700-5031,8/19/2022
F7678,서울특별시,중랑구,고속국도,61,동부간선도로,1,서울특별시 중랑구 묵동 354-14,서울특별시 중랑구 묵동 354-14,37.6120815,127.0725175,월릉교 300m 전,1,80,,,,2014,서울특별시경찰청,02-700-5031,8/19/2022
F7679,서울특별시,서초구,일반국도,47,중앙로,2,서울특별시 서초구 중앙로 557,,37.45752329,127.0125555,식유촌마을 앞,2,50,,,,2014,서울특별시경찰청,02-700-5031,8/19/2022
F7680,서울특별시,서초구,특별시도,,과천대로,1,서울특별시 서초구 과천대로 836,,37.46660321,126.9880709,남태령전원마을입구,2,50,,,,2014,서울특별시경찰청,02-700-5031,8/19/2022
F7681,서울특별시,강동구,특별시도,,양재대로,2,서울특별시 강동구 양재대로 1371,,37.52870254,127.1360663,둔촌동역 교차로,2,50,,,,2014,서울특별시경찰청,02-700-5031,8/19/2022
F7682,서울특별시,강남구,특별시도,,선릉로,2,서울특별시 강남구 선릉로 344,,37.50050642,127.0511905,도성초교 교차로,2,50,,,,2014,서울특별시경찰청,02-700-5031,8/19/2022
F7683,서울특별시,강남구,특별시도,,도산대로,2,서울특별시 강남구 도산대로 335,,37.52339385,127.0385173,학동사거리,2,50,,,,2014,서울특별시경찰청,02-700-5031,8/19/2022
F7684,서울특별시,금천구,특별시도,,디지털로,1,서울특별시 금천구 디지털로 188,,37.47732723,126.8876762,가산로데오거리,2,50,,,,2014,서울특별시경찰청,02-700-5031,8/19/2022
F7685,서울특별시,관악구,특별시도,,보라매로,2,서울특별시 관악구 봉천동 727-8,,37.4922,126.926732,SKT보라매사옥 앞,2,50,,,2,2014,서울특별시경찰청,02-700-5031,8/19/2022
F7686,서울특별시,영등포구,특별시도,,영중로,2,서울특별시 영등포구 영중로 37,,37.51948008,126.9047117,영등포시장 교차로,2,50,,,,2014,서울특별시경찰청,02-700-5031,8/19/2022
F7687,서울특별시,양천구,특별시도,,목동동로,1,서울특별시 양천구 목동동로 172,,37.520972,126.8714434,목동중교 앞 교차로,2,50,,,,2014,서울특별시경찰청,02-700-5031,8/19/2022
F7688,서울특별시,영등포구,일반국도,46,경인로,1,서울특별시 영등포구 경인로 846,,37.51566803,126.907666,영등포역 교차로,2,50,,,,2014,서울특별시경찰청,02-700-5031,8/19/2022
F7689,서울특별시,강서구,특별시도,,강서로,1,서울특별시 강서구 강서로 34,,37.53099372,126.8474429,화곡사거리,2,50,,,,2014,서울특별시경찰청,02-700-5031,8/19/2022
F7690,서울특별시,구로구,특별시도,,서해안로,1,서울특별시 구로구 서해안로 2242,,37.48820185,126.835654,광덕사거리,2,50,,,,2014,서울특별시경찰청,02-700-5031,8/19/2022
F7691,서울특별시,강북구,특별시도,,솔샘로,1,서울특별시 강북구 솔샘로 184,,37.61995872,127.0128511,솔샘문화정보센터 건너편,2,30,,,2,2014,서울특별시경찰청,02-700-5031,8/19/2022
F7692,서울특별시,도봉구,일반국도,3,도봉로,2,서울특별시 도봉구 도봉로 851,,37.68039915,127.0450044,도봉역 교차로,2,50,,,,2014,서울특별시경찰청,02-700-5031,8/19/2022
F7693,서울특별시,노원구,특별시도,,덕릉로,1,서울특별시 노원구 덕릉로 676-2,,37.65790777,127.075237,삿갓봉근린공원 교차로,2,50,,,,2014,서울특별시경찰청,02-700-5031,8/19/2022
F7694,서울특별시,광진구,특별시도,,능동로,2,서울특별시 광진구 능동로 209,,37.55160814,127.0731832,세종대학교정문 앞,2,50,,,,2014,서울특별시경찰청,02-700-5031,8/19/2022
F7695,서울특별시,중랑구,일반국도,6,망우로,2,서울특별시 중랑구 망우로 431,,37.60004327,127.1000465,망우사거리,2,50,,,,2014,서울특별시경찰청,02-700-5031,8/19/2022
F7696,서울특별시,성동구,특별시도,,뚝섬로,1,서울특별시 성동구 뚝섬로 51,,37.54248198,127.0195991,옥수역삼거리,2,50,,,,2014,서울특별시경찰청,02-700-5031,8/19/2022
F7697,서울특별시,중구,특별시도,,퇴계로,1,서울특별시 중구 퇴계로 244,,37.562142,126.999034,퇴계로4가 교차로,2,50,,,,2014,서울특별시경찰청,02-700-5031,8/19/2022
F7698,서울특별시,종로구,일반국도,6,종로,1,서울특별시 종로구 종로 22,,37.56987678,126.9796743,종로구청입구 교차로,2,50,,,,2014,서울특별시경찰청,02-700-5031,8/19/2022
F7699,서울특별시,종로구,특별시도,,창경궁로,1,서울특별시 종로구 창경궁로 288,,37.58620415,127.0027406,혜화동로터리,2,50,,,,2014,서울특별시경찰청,02-700-5031,8/19/2022
F7700,서울특별시,은평구,일반국도,1,통일로,1,서울특별시 은평구 통일로 972,,37.63013936,126.9199312,박석고개 교차로,2,50,,,,2014,서울특별시경찰청,02-700-5031,8/19/2022
F7701,서울특별시,서대문구,특별시도,,통일로,2,서울특별시 서대문구 통일로 483,,37.59100718,126.9412757,홍은사거리,2,50,,,,2014,서울특별시경찰청,02-700-5031,8/19/2022
F7702,서울특별시,동대문구,특별시도,,고산자로,2,서울특별시 동대문구 고산자로 421,,37.57738655,127.0379219,경동시장 교차로,2,50,,,,2014,서울특별시경찰청,02-700-5031,8/19/2022
F7703,서울특별시,관악구,특별시도,,호암로,1,서울특별시 관악구 호암로 467,,37.45996441,126.9305881,주영광교회 건너편,1,40,,,,2014,서울특별시경찰청,02-700-5031,8/19/2022
F7924,서울특별시,중구,특별시도,,동호로,1,서울특별시 중구 동호로 166,,37.55329028,127.012181,약수역사거리 200m 전,1,50,,,,2015,서울특별시경찰청,02-700-5031,8/19/2022
F8143,서울특별시,광진구,특별시도,,뚝섬로,1,서울특별시 광진구 뚝섬로 553,,37.53470356,127.0713072,동자초교 앞,2,30,,,2,2015,서울특별시경찰청,02-700-5031,8/19/2022
F8144,서울특별시,서초구,특별시도,,잠원로,2,서울특별시 서초구 잠원동 159-1,,37.51306,127.006271,반포3동주민센터 교차로,1,50,,,,2015,서울특별시경찰청,02-700-5031,8/19/2022
F8145,서울특별시,서초구,특별시도,,신반포로,2,서울특별시 서초구 신반포로 41,,37.50196275,126.9890314,구반포 세븐일레븐 앞,2,50,,,,2015,서울특별시경찰청,02-700-5031,8/19/2022
F8146,서울특별시,서초구,특별시도,,헌릉로,2,서울특별시 서초구 헌릉로 177,,37.45744348,127.0601931,GS칼텍스 헌릉로주유소 건너편,2,50,,,,2015,서울특별시경찰청,02-700-5031,8/19/2022
F8147,서울특별시,서초구,특별시도,,신반포로,1,서울특별시 서초구 신반포로 100,,37.503093,126.9956936,신반포역사거리,2,50,,,,2015,서울특별시경찰청,02-700-5031,8/19/2022
F8148,서울특별시,강남구,특별시도,,봉은사로,2,서울특별시 강남구 봉은사로 105,,37.5049715,127.025033,어반하이브빌딩 앞,1,50,,,,2015,서울특별시경찰청,02-700-5031,8/19/2022
F8149,서울특별시,강남구,특별시도,,봉은사로,1,서울특별시 강남구 봉은사로 108,,37.5045343,127.025592,교보타워사거리,2,50,,,,2015,서울특별시경찰청,02-700-5031,8/19/2022
F8152,서울특별시,중랑구,특별시도,,사가정로,2,서울특별시 중랑구 면목동 495,,37.5807,127.088943,용마터널북단 100m,1,50,,,,2015,서울특별시경찰청,02-700-5031,8/19/2022
F8181,서울특별시,강동구,특별시도,,양재대로,1,서울특별시 강동구 양재대로 1706,,37.55795484,127.1462943,명덕초교 앞,2,40,,,2,2015,서울특별시경찰청,02-700-5031,8/19/2022
F8182,서울특별시,강동구,특별시도,,양재대로,2,서울특별시 강동구 양재대로 1706,,37.55795484,127.1462943,강동롯데캐슬퍼스트아파트 앞,2,40,,,2,2015,서울특별시경찰청,02-700-5031,8/19/2022
F8261,서울특별시,동대문구,특별시도,,겸재로,2,서울특별시 동대문구 겸재로 21,,37.5852216,127.0697283,휘경공고 앞,2,30,,,2,2015,서울특별시경찰청,02-700-5031,8/19/2022
F8262,서울특별시,중랑구,특별시도,,겸재로,1,서울특별시 중랑구 겸재로 78,,37.58574175,127.0766898,벹엘교회 앞,2,30,,,,2015,서울특별시경찰청,02-700-5031,8/19/2022
F8355,서울특별시,영등포구,특별시도,,영등포로,2,서울특별시 영등포구 영등포로 356,,37.51458129,126.9177251,서울대윤병원 앞,2,50,,,,2015,서울특별시경찰청,02-700-5031,8/19/2022
F8356,서울특별시,영등포구,특별시도,,여의동로,1,서울특별시 영등포구 여의동로 300-2,,37.52437689,126.9360341,여의도선착장삼거리,2,50,,,,2015,서울특별시경찰청,02-700-5031,8/19/2022
F8435,서울특별시,동대문구,특별시도,,장안벚꽃로,1,서울특별시 중랑구 면목동 1049-110,,37.583784,127.073216,동대문장애인복지관 건너편,2,40,,,,2015,서울특별시경찰청,02-700-5031,8/19/2022
F8436,서울특별시,동대문구,특별시도,,장안벚꽃로,1,서울특별시 중랑구 면목동 1049-110,,37.583759,127.073227,겸재교 진입램프,2,30,,,,2015,서울특별시경찰청,02-700-5031,8/19/2022
F8437,서울특별시,강서구,특별시도,,방화대로,1,서울특별시 강서구 방화동 산 116-9,,37.582501,126.81832,방화터널 북단출구,1,40,,,,2015,서울특별시경찰청,02-700-5031,8/19/2022
F8438,서울특별시,강서구,특별시도,,방화대로,1,서울특별시 강서구 방화대로 408,,37.57707792,126.8171321,강서공고 건너편,2,50,,,,2015,서울특별시경찰청,02-700-5031,8/19/2022
F8439,서울특별시,강서구,특별시도,,방화대로,2,서울특별시 강서구 방화대로 379,,37.57474048,126.8163797,강서공고 앞,2,50,,,,2015,서울특별시경찰청,02-700-5031,8/19/2022
F8440,서울특별시,중랑구,특별시도,,북부간선도로,1,서울특별시 중랑구 묵동 26-1,서울특별시 중랑구 묵동 26-1,37.61974743,127.0883965,묵동IC 진출램프,1,50,,,,2016,서울특별시경찰청,02-700-5031,8/19/2022
F8441,서울특별시,서초구,특별시도,,서초대로,2,서울특별시 서초구 서초대로 41,,37.486132,126.9868591,현대자동차 앞,1,50,,,,2015,서울특별시경찰청,02-700-5031,8/19/2022
F8442,서울특별시,서초구,특별시도,,동작대로,1,서울특별시 서초구 동작대로 108,,37.4860911,126.9826166,이수역 교차로,2,50,,,,2015,서울특별시경찰청,02-700-5031,8/19/2022
F8443,서울특별시,서초구,특별시도,,방배로,1,서울특별시 서초구 방배로 58,,37.479994,126.999044,현대맴피스아파트 건너편,2,50,,,,2015,서울특별시경찰청,02-700-5031,8/19/2022
F8537,서울특별시,서초구,고속국도,1,경부고속도로,2,서울특별시 서초구 서초동 1370,서울특별시 서초구 서초동 1370,37.498149,127.0204143,서초레미안아파트 앞,1,80,,,,2015,서울특별시경찰청,02-700-5031,8/19/2022
F8538,서울특별시,서초구,고속국도,1,경부고속도로,1,서울특별시 서초구 서초동 1311-6,서울특별시 서초구 서초동 1311-6,37.50068533,127.0197482,서초래미안스위트아파트 앞,1,80,,,,2015,서울특별시경찰청,02-700-5031,8/19/2022
F8539,서울특별시,서초구,고속국도,1,경부고속도로,1,서울특별시 서초구 원지동 94-1,서울특별시 서초구 원지동 94-1,37.45795206,127.045884,양재대로 진출램프,1,40,,,,2016,서울특별시경찰청,02-700-5031,8/19/2022
F8540,서울특별시,금천구,특별시도,,남부순환로,2,서울특별시 금천구 가산동 121-58,서울특별시 금천구 가산동 121-58,37.48229963,126.8860633,까르뜨니트물류센터마리오 앞,1,50,,,,2016,서울특별시경찰청,02-700-5031,8/19/2022
F8541,서울특별시,성동구,특별시도,,독서당로,1,서울특별시 성동구 독서당로 270,,37.546693,127.0194815,금호대우아파트 101동 앞,1,30,,,,2016,서울특별시경찰청,02-700-5031,8/19/2022
F8542,서울특별시,용산구,특별시도,,양녕로,2,서울특별시 용산구 양녕로 445,,37.51766383,126.9580365,한강대교 노들섬,1,50,,,,2016,서울특별시경찰청,02-700-5031,8/19/2022
F8543,서울특별시,용산구,특별시도,,양녕로,1,서울특별시 용산구 양녕로 446,,37.51736432,126.9592677,한강대교 노들섬,1,50,,,,2016,서울특별시경찰청,02-700-5031,8/19/2022
F8544,서울특별시,영등포구,특별시도,,국회대로,2,서울특별시 영등포구 국회대로 552,,37.52782614,126.8956353,삼익아파트 앞,1,50,,,,2016,서울특별시경찰청,02-700-5031,8/19/2022
F8545,서울특별시,서초구,특별시도,,남부순환로,1,서울특별시 서초구 남부순환로 2406,,37.4802402,127.0142152,한국예술종합학교 앞,1,50,,,,2016,서울특별시경찰청,02-700-5031,8/19/2022
F8546,서울특별시,강남구,특별시도,,광평로,1,서울특별시 강남구 광평로 144,,37.48359088,127.0887929,삼성아파트 105동 건너편,1,50,,,,2016,서울특별시경찰청,02-700-5031,8/19/2022
F8547,서울특별시,서초구,특별시도,,강남대로,2,서울특별시 서초구 잠원동 49-35,,37.52302,127.016503,한남대교남단,1,50,,,,2016,서울특별시경찰청,02-700-5031,8/19/2022
F8548,서울특별시,강동구,특별시도,,강동대로,1,서울특별시 강동구 강동대로 245,,37.52227649,127.1332302,둔촌사거리,2,50,,,,2016,서울특별시경찰청,02-700-5031,8/19/2022
F8549,서울특별시,강북구,특별시도,,인수봉로,1,서울특별시 강북구 인수봉로 136,,37.63192471,127.0138362,혜화여고 건너편,2,30,,,2,2016,서울특별시경찰청,02-700-5031,8/19/2022
F8550,서울특별시,강북구,특별시도,,인수봉로,2,서울특별시 강북구 인수봉로 269,,37.643063,127.0091358,인수초중교 앞,2,30,,,2,2016,서울특별시경찰청,02-700-5031,8/19/2022
F8551,서울특별시,강서구,일반국도,6,공항대로,2,서울특별시 강서구 공항대로 69,,37.56148292,126.8155337,공항중학교삼거리,2,50,,,,2016,서울특별시경찰청,02-700-5031,8/19/2022
F8552,서울특별시,광진구,특별시도,,천호대로,2,서울특별시 광진구 천호대로 808,,37.54507352,127.1027396,광장사거리,2,50,,,,2016,서울특별시경찰청,02-700-5031,8/19/2022
F8553,서울특별시,동대문구,특별시도,,한천로58길,1,서울특별시 동대문구 한천로58길 107,,37.6012567,127.0697682,이화교삼거리,2,50,,,,2016,서울특별시경찰청,02-700-5031,8/19/2022
F8554,서울특별시,동작구,특별시도,,여의대방로,1,서울특별시 동작구 여의대방로 24,,37.49411971,126.9110974,현대아파트 104동 앞,2,50,,,,2016,서울특별시경찰청,02-700-5031,8/19/2022
F8555,서울특별시,마포구,일반국도,6,신촌로,1,서울특별시 마포구 신촌로 270,,37.557192,126.9557107,굴레방다리 교차로,2,50,,,,2016,서울특별시경찰청,02-700-5031,8/19/2022
F8556,서울특별시,동대문구,특별시도,,고산자로,1,서울특별시 동대문구 고산자로 436-4,,37.57849513,127.0384967,경동시장 교차로,2,50,,,,2016,서울특별시경찰청,02-700-5031,8/19/2022
F8557,서울특별시,송파구,특별시도,,위례성대로,1,서울특별시 송파구 위례성대로 138,,37.51179326,127.1268177,올림픽공원 교차로,2,50,,,,2016,서울특별시경찰청,02-700-5031,8/19/2022
F8558,서울특별시,강남구,특별시도,,역삼로,1,서울특별시 강남구 역삼로 314,,37.49961513,127.0493026,도성초교 건너편,2,30,,,2,2016,서울특별시경찰청,02-700-5031,8/19/2022
F8559,서울특별시,양천구,특별시도,,신정로,1,서울특별시 양천구 신정로 170,,37.50864654,126.8423769,신정현대6차아파트 앞,2,50,,,,2016,서울특별시경찰청,02-700-5031,8/19/2022
F8560,서울특별시,은평구,특별시도,,서오릉로,2,서울특별시 은평구 서오릉로 139,,37.61083816,126.917497,구산역 교차로,2,50,,,,2016,서울특별시경찰청,02-700-5031,8/19/2022
F8561,서울특별시,종로구,일반국도,6,새문안로,2,서울특별시 종로구 새문안로 55,,37.57049685,126.9710752,서울역사박물관 앞,2,50,,,,2016,서울특별시경찰청,02-700-5031,8/19/2022
F8562,서울특별시,중랑구,일반국도,47,경춘북로,2,서울특별시 중랑구 신내동 270-2,,37.619434,127.104517,중랑경찰서 후문,2,50,,,,2016,서울특별시경찰청,02-700-5031,8/19/2022
F8563,서울특별시,도봉구,특별시도,,해등로,1,서울특별시 도봉구 해등로 295,,37.65709893,127.0243731,우성2차아파트 201동 앞,2,30,,,2,2016,서울특별시경찰청,02-700-5031,8/19/2022
F8564,서울특별시,노원구,일반국도,3,동일로,1,서울특별시 노원구 동일로 1449,,37.65748572,127.058807,온수골사거리,2,50,,,,2016,서울특별시경찰청,02-700-5031,8/19/2022
F8565,서울특별시,서대문구,일반국도,48,성산로,1,서울특별시 서대문구 성산로 426,,37.55977718,126.9344344,연세대공학원 앞,2,50,,,,2016,서울특별시경찰청,02-700-5031,8/19/2022
F8694,서울특별시,중구,특별시도,,장충단로,1,서울특별시 중구 장충단로 263,,37.56811569,127.0084727,두산타워 건너편,2,50,,,,2016,서울특별시경찰청,02-700-5031,8/19/2022
F8695,서울특별시,송파구,특별시도,,중대로,1,서울특별시 송파구 중대로 304-1,,37.50751633,127.1332496,백토공원사거리,2,50,,,,2017,서울특별시경찰청,02-700-5031,8/19/2022
F9093,서울특별시,관악구,특별시도,,난곡로,1,서울특별시 관악구 난곡로 172,,37.47047357,126.9200796,우림시장앞,2,30,,,2,2016,서울특별시경찰청,02-700-5031,8/19/2022
F9094,서울특별시,관악구,특별시도,,호암로,1,서울특별시 관악구 호암로 358,,37.45944449,126.922967,관악산 휴먼시아아파트 앞,2,40,,,,2016,서울특별시경찰청,02-700-5031,8/19/2022
F9095,서울특별시,관악구,특별시도,,관악로,1,서울특별시 관악구 관악로 118,,37.47590606,126.9530348,청룡초등학교입구,2,50,,,,2016,서울특별시경찰청,02-700-5031,8/19/2022
F9096,서울특별시,중구,특별시도,,세종대로,1,서울특별시 중구 세종대로 8-1,,37.55755882,126.9734,서울역 교차로,2,50,,,,2016,서울특별시경찰청,02-700-5031,8/19/2022
F9097,서울특별시,중구,특별시도,,통일로,2,서울특별시 중구 통일로 10,,37.55709666,126.9736338,서울역 교차로,2,50,,,,2016,서울특별시경찰청,02-700-5031,8/19/2022
F9098,서울특별시,송파구,특별시도,,새말로,2,서울특별시 송파구 새말로 27,,37.48088703,127.1177758,서울특별시경찰청 제3기동단 앞,2,50,,,,2016,서울특별시경찰청,02-700-5031,8/19/2022
F9099,서울특별시,송파구,특별시도,,새말로,1,서울특별시 송파구 새말로 62,,37.48083429,127.1212768,송파파크하비오푸르지오 205동 앞,2,50,,,,2016,서울특별시경찰청,02-700-5031,8/19/2022
F9166,서울특별시,서초구,특별시도,,남부순환로,1,서울특별시 서초구 남부순환로 2271,,37.474954,127.0006595,경남아파트 앞 교차로,2,50,,,,2016,서울특별시경찰청,02-700-5031,8/19/2022
F9167,서울특별시,강서구,일반국도,6,방화대로,1,서울특별시 강서구 방화대로 96,,37.54895804,126.8173096,메이필드호텔 앞 교차로,2,50,,,,2016,서울특별시경찰청,02-700-5031,8/19/2022
F9168,서울특별시,강서구,일반국도,6,방화대로,2,서울특별시 강서구 방화대로 2,,37.54075832,126.8171299,메이필드호텔 앞 교차로 부천방면 전방800m,1,50,,,,2016,서울특별시경찰청,02-700-5031,8/19/2022
F9169,서울특별시,동작구,특별시도,,장승배기로,1,서울특별시 동작구 장승배기로 160,,37.51175038,126.9408242,노량진초교 앞,2,30,,,2,2016,서울특별시경찰청,02-700-5031,8/19/2022
F9170,서울특별시,관악구,특별시도,,강남순환로,1,서울특별시 관악구 신림동 142-2,서울특별시 관악구 신림동 142-2,37.46930471,126.9485233,"관악IC(수서 방면) 1,2,3차로",1,80,,,,2016,서울특별시경찰청,02-700-5031,8/19/2022
F9171,서울특별시,관악구,특별시도,,강남순환로,2,서울특별시 관악구 신림동 144-4,서울특별시 관악구 신림동 144-4,37.46882093,126.947505,"관악IC(광명 방면) 1,2,3차로",1,80,,,,2016,서울특별시경찰청,02-700-5031,8/19/2022
F9172,서울특별시,서초구,특별시도,,강남순환로,2,서울특별시 서초구 방배동 산 130-7,서울특별시 서초구 방배동 산 130-7,37.47035775,126.9871144,"사당IC(광명 방면) 1,2,3차로",1,80,,,,2016,서울특별시경찰청,02-700-5031,8/19/2022
F9173,서울특별시,서초구,특별시도,,강남순환로,1,서울특별시 서초구 우면동 산 69-5,서울특별시 서초구 우면동 산 69-5,37.46238431,127.0183127,"서초터널 출구(수서 방면) 1,2,3차로",1,80,,,,2016,서울특별시경찰청,02-700-5031,8/19/2022
F9174,서울특별시,은평구,특별시도,,가좌로,2,서울특별시 은평구 가좌로 391,,37.6004849,126.9038083,신사시티아파트 101동 앞,2,50,,,,2018,서울특별시경찰청,02-700-5031,8/19/2022
F9175,서울특별시,양천구,특별시도,,신정로,1,서울특별시 양천구 신정로 110,,37.50612378,126.8339307,신정숲속마을아파트 앞,2,50,,,,2016,서울특별시경찰청,02-700-5031,8/19/2022
F9176,서울특별시,노원구,특별시도,,덕릉로,2,서울특별시 노원구 덕릉로 881,,37.67450143,127.0850431,덕릉터널 앞 교차로,2,50,,,,2016,서울특별시경찰청,02-700-5031,8/19/2022
F9177,서울특별시,서초구,특별시도,,신반포로15길,1,서울특별시 서초구 신반포로15길 19,,37.506252,126.9926731,신반포쇼핑센터 앞,2,30,,,2,2016,서울특별시경찰청,02-700-5031,8/19/2022
F9178,서울특별시,서초구,특별시도,,신반포로15길,2,서울특별시 서초구 신반포로15길 19,,37.506252,126.9926731,아크로리버파크 104동 앞,2,30,,,,2016,서울특별시경찰청,02-700-5031,8/19/2022
F9330,서울특별시,강남구,특별시도,,테헤란로,2,서울특별시 강남구 테헤란로 625,,37.51015034,127.066049,강남경찰서 교차로,2,50,,,,2016,서울특별시경찰청,02-700-5031,8/19/2022
F9331,서울특별시,강북구,특별시도,,도봉로,1,서울특별시 강북구 도봉로 162,,37.62325505,127.0276976,신일교회 앞,2,50,,,,2016,서울특별시경찰청,02-700-5031,8/19/2022
F9332,서울특별시,강서구,일반국도,48,공항대로,1,서울특별시 강서구 공항대로 28,,37.56114636,126.8102805,송정초등학교 건너편,2,50,,,,2016,서울특별시경찰청,02-700-5031,8/19/2022
F9333,서울특별시,강서구,일반국도,6,공항대로,1,서울특별시 강서구 공항대로 653,,37.54733881,126.877417,현대오일뱅크 양화교주유소 앞,2,50,,,,2016,서울특별시경찰청,02-700-5031,8/19/2022
F9334,서울특별시,관악구,특별시도,,관악로,2,서울특별시 관악구 관악로 285,,37.48939185,126.9554433,성현동아아파트 104동 앞,2,50,,,,2016,서울특별시경찰청,02-700-5031,8/19/2022
F9335,서울특별시,구로구,특별시도,,오리로,2,서울특별시 구로구 오리로 1173,,37.48804308,126.836806,오남중학교 입구,2,50,,,,2016,서울특별시경찰청,02-700-5031,8/19/2022
F9336,서울특별시,도봉구,특별시도,,도봉로,2,서울특별시 도봉구 도봉로 683,,37.66549069,127.0419341,성모샘병원 앞,2,50,,,,2016,서울특별시경찰청,02-700-5031,8/19/2022
F9337,서울특별시,동대문구,특별시도,,사가정로,1,서울특별시 동대문구 사가정로 66,,37.574515,127.053466,전농초등학교,2,30,,,2,2016,서울특별시경찰청,02-700-5031,8/19/2022
F9338,서울특별시,동작구,특별시도,,노량진로,1,서울특별시 동작구 노량진로 148,,37.51279586,126.9425495,동작경찰서 앞 삼거리,2,50,,,,2016,서울특별시경찰청,02-700-5031,8/19/2022
F9339,서울특별시,마포구,특별시도,,가양대로,1,서울특별시 마포구 가양대로 179,,37.58464695,126.8832829,월드컵파크7단지 교차로,2,50,,,,2016,서울특별시경찰청,02-700-5031,8/19/2022
F9340,서울특별시,마포구,고속국도,70,강변북로,2,서울특별시 마포구 망원동 229-1,서울특별시 마포구 망원동 229-1,37.5526534,126.9001573,한강시민공원 망원지구,1,80,,,,2016,서울특별시경찰청,02-700-5031,8/19/2022
F9341,서울특별시,서대문구,고속국도,30,내부순환로,2,서울특별시 서대문구 연희동 172-87,서울특별시 서대문구 연희동 172-87,37.57816366,126.93149,두산아파트 앞,1,70,,,,2016,서울특별시경찰청,02-700-5031,8/19/2022
F9342,서울특별시,서초구,특별시도,,효령로,1,서울특별시 서초구 효령로 84,,37.47982045,126.9933557,효령아파트 교차로,2,50,,,,2016,서울특별시경찰청,02-700-5031,8/19/2022
F9343,서울특별시,성동구,특별시도,,고산자로,1,서울특별시 성동구 고산자로 71,,37.54479698,127.0349314,응봉교 교차로,2,50,,,,2016,서울특별시경찰청,02-700-5031,8/19/2022
F9344,서울특별시,성북구,특별시도,,동소문로,2,서울특별시 성북구 동소문로 1,,37.58879977,127.0063382,한성대입구역 교차로,2,50,,,,2016,서울특별시경찰청,02-700-5031,8/19/2022
F9345,서울특별시,성북구,특별시도,,화랑로,1,서울특별시 성북구 화랑로 368,,37.61526655,127.0688474,서울특별시민방위교육장 앞,2,50,,,,2016,서울특별시경찰청,02-700-5031,8/19/2022
F9346,서울특별시,양천구,특별시도,,목동서로,2,서울특별시 양천구 목동서로 38,,37.54129134,126.8785038,목동신시가지1단지101동 앞,2,50,,,,2016,서울특별시경찰청,02-700-5031,8/19/2022
F9347,서울특별시,영등포구,특별시도,,국회대로,1,서울특별시 영등포 국회대로 595,,37.526636,126.901504,영등포경찰서건너편,2,50,,,,2016,서울특별시경찰청,02-700-5031,8/19/2022
F9348,서울특별시,용산구,특별시도,,한강대로,1,서울특별시 용산구 한강대로 198,,37.53595002,126.9748221,삼각지 교차로,2,50,,,,2016,서울특별시경찰청,02-700-5031,8/19/2022
F9349,서울특별시,은평구,특별시도,,수색로,2,서울특별시 은평구 수색로 345,,37.58603327,126.8873235,수색교,2,50,,,,2016,서울특별시경찰청,02-700-5031,8/19/2022
F9350,서울특별시,은평구,특별시도,,연서로,1,서울특별시 은평구 연서로 534,,37.64097221,126.9379431,진관사입구 교차로,2,50,,,,2016,서울특별시경찰청,02-700-5031,8/19/2022
F9351,서울특별시,중랑구,특별시도,,용마산로,1,서울특별시 중랑구 용마산로 363,,37.58445201,127.093739,중화중학교 앞,2,50,,,,2016,서울특별시경찰청,02-700-5031,8/19/2022
F9352,서울특별시,강남구,특별시도,,남부순환로,1,서울특별시 강남구 남부순환로 2726,,37.48562012,127.0441427,한국건설감리협회 앞,1,50,,,,2016,서울특별시경찰청,02-700-5031,8/19/2022
F9353,서울특별시,영등포구,특별시도,,도림로,2,서울특별시 영등포구 도림로 475,,37.516136,126.89066,구립영등포노인종합복지관 건너편,2,50,,,1,2016,서울특별시경찰청,02-700-5031,8/19/2022
F9354,서울특별시,용산구,특별시도,,한남대로,2,서울특별시 용산구 한남대로 91,,37.53656366,127.0021344,한남1고가차도종점,1,50,,,,2016,서울특별시경찰청,02-700-5031,8/19/2022
F9355,서울특별시,노원구,특별시도,,노원로,1,서울특별시 노원구 노원로 192,,37.63744806,127.0795366,공릉터널 교차로,1,50,,,,2016,서울특별시경찰청,02-700-5031,8/19/2022
F9356,서울특별시,송파구,특별시도,,올림픽로,2,서울특별시 송파구 올림픽로 419,,37.52048936,127.1141236,올림픽회관 교차로,2,50,,,,2016,서울특별시경찰청,02-700-5031,8/19/2022
F9357,서울특별시,광진구,일반국도,43,아차산로,2,서울특별시 광진구 아차산로 633,,37.549262,127.1076144,워커힐아파트 입구,2,50,,,,2016,서울특별시경찰청,02-700-5031,8/19/2022
F9358,서울특별시,중구,특별시도,,퇴계로,1,서울특별시 중구 퇴계로 187,,37.56131216,126.9925527,NH농협은행충무로지점 건너,1,50,,,,2016,서울특별시경찰청,02-700-5031,8/19/2022
F9359,서울특별시,구로구,특별시도,,오리로,1,서울특별시 구로구 오리로 1265,,37.49467146,126.8300624,우신빌라5동 건너편,1,50,,,,2016,서울특별시경찰청,02-700-5031,8/19/2022
F9360,서울특별시,서초구,특별시도,,잠원로,1,서울특별시 서초구 잠원로 86,,37.51211326,127.0066549,뉴코아백화점 교차로,2,50,,,,2016,서울특별시경찰청,02-700-5031,8/19/2022
F9361,서울특별시,강남구,특별시도,,역삼로8길,1,서울특별시 강남구 역삼로8길 21,,37.49276704,127.0342469,역삼초교 입구,2,30,,,2,2016,서울특별시경찰청,02-700-5031,8/19/2022
F9362,서울특별시,강남구,특별시도,,선릉로,2,서울특별시 강남구 선릉로 103,,37.48615258,127.056121,서울개일초교 건너편,2,30,,,2,2016,서울특별시경찰청,02-700-5031,8/19/2022
F9363,서울특별시,강남구,특별시도,,자곡로,2,서울특별시 강남구 자곡로 55,,37.4688571,127.0910759,세명초교 남측,2,30,,,2,2016,서울특별시경찰청,02-700-5031,8/19/2022
F9364,서울특별시,강남구,특별시도,,밤고개로23길,2,서울특별시 강남구 밤고개로23길 22,,37.47377912,127.1085931,율현초교 앞,1,30,,,2,2016,서울특별시경찰청,02-700-5031,8/19/2022
F9945,서울특별시,구로구,특별시도,,남부순환로,1,서울특별시 구로구 구로동 692-1,서울특별시 구로구 구로동 692-1,37.49095428,126.8747106,안양교 진입 전,1,50,,,,2018,서울특별시경찰청,02-700-5031,8/19/2022
F9946,서울특별시,종로구,일반국도,6,새문안로,1,서울특별시 종로구 새문안로 38,,37.568382,126.9697592,정동사거리,2,50,,,,2017,서울특별시경찰청,02-700-5031,8/19/2022
F9947,서울특별시,서대문구,일반국도,6,충정로,2,서울특별시 서대문구 충정로 77,,37.56551037,126.965979,서대문역사거리,2,50,,,,2017,서울특별시경찰청,02-700-5031,8/19/2022
F9948,서울특별시,송파구,일반국도,3,송파대로,1,서울특별시 송파구 송파대로 558,,37.51509485,127.0997117,잠실역 교차로,2,50,,,,2018,서울특별시경찰청,02-700-5031,8/19/2022
F9949,서울특별시,송파구,일반국도,3,송파대로,2,서울특별시 송파구 송파대로 567,,37.51313818,127.0930487,잠실역 교차로,2,50,,,,2018,서울특별시경찰청,02-700-5031,8/19/2022
F9950,서울특별시,송파구,특별시도,,올림픽로,1,서울특별시 송파구 올림픽로 300,,37.51375196,127.1044469,잠실역 교차로,2,50,,,,2018,서울특별시경찰청,02-700-5031,8/19/2022
F9951,서울특별시,송파구,특별시도,,올림픽로,2,서울특별시 송파구 올림픽로 240,,37.51130961,127.0981418,잠실역 교차로,2,50,,,,2018,서울특별시경찰청,02-700-5031,8/19/2022
F9952,서울특별시,송파구,특별시도,,잠실로,2,서울특별시 송파구 잠실로 지하 156,,37.51132007,127.1017527,잠실광역환승센터 교차로,2,50,,,,2018,서울특별시경찰청,02-700-5031,8/19/2022
F9953,서울특별시,송파구,일반국도,3,송파대로,1,서울특별시 송파구 송파대로 476,,37.50876177,127.1045302,석촌호수 교차로,2,50,,,,2018,서울특별시경찰청,02-700-5031,8/19/2022
F9954,서울특별시,금천구,일반국도,1,시흥대로,2,서울특별시 금천구 시흥대로 39,,37.43798988,126.9027534,기아대교앞 교차로,2,50,,,,2018,서울특별시경찰청,02-700-5031,8/19/2022
F9955,서울특별시,금천구,일반국도,1,시흥대로,1,서울특별시 금천구 시흥대로 52,,37.43873728,126.9035394,기아대교앞 교차로,2,50,,,,2018,서울특별시경찰청,02-700-5031,8/19/2022
F9956,서울특별시,서초구,특별시도,,남부순환로,2,서울특별시 서초구 남부순환로 2183,,37.47511676,126.991028,방배래미안타워 건너편,2,50,,,,2017,서울특별시경찰청,02-700-5031,8/19/2022
F9957,서울특별시,서초구,일반국도,47,중앙로,1,서울특별시 서초구 중앙로 557,,37.45752329,127.0125555,서초호반써밋아파트 102동 앞,2,50,,,,2017,서울특별시경찰청,02-700-5031,8/19/2022
G0005,서울특별시,영등포구,특별시도,,국회대로,2,서울특별시 영등포구 국회대로 741,,37.52837856,126.9152257,국회의사당 앞 교차로,2,50,,,,2017,서울특별시경찰청,02-700-5031,8/19/2022
G0006,서울특별시,관악구,특별시도,,남부순환로,1,서울특별시 관악구 남부순환로 2028,,37.475882,126.9738902,한국엔지니어링협회 건너편,2,50,,,,2017,서울특별시경찰청,02-700-5031,8/19/2022
G0007,서울특별시,관악구,특별시도,,문성로,1,서울특별시 관악구 문성로 214,,37.479167,126.9275614,새명문유치원 앞,2,30,,,2,2017,서울특별시경찰청,02-700-5031,8/19/2022
G0008,서울특별시,관악구,특별시도,,호암로,1,서울특별시 관악구 호암로 417,,37.46133515,126.927433,국제산장APT 입구,2,40,,,,2017,서울특별시경찰청,02-700-5031,8/19/2022
G0300,서울특별시,송파구,특별시도,,탄천동로,2,서울특별시 송파구 장지동 803-5,서울특별시 송파구 장지동 803-5,37.47649615,127.1211896,"위례중앙지하차도 진입전 1,2차로",1,50,,,,2018,서울특별시경찰청,02-700-5031,8/19/2022
G0301,서울특별시,송파구,특별시도,,탄천동로,1,서울특별시 송파구 장지동 803-15,서울특별시 송파구 장지동 803-15,37.476644,127.1213301,위례중앙지하차도 진출부,1,50,,,,2018,서울특별시경찰청,02-700-5031,8/19/2022
G0302,서울특별시,송파구,특별시도,,위례중앙로,1,서울특별시 송파구 장지동 938,서울특별시 송파구 장지동 938,37.47456576,127.1351629,"위례중앙지하차도 진입전 1,2차로",1,50,,,,2018,서울특별시경찰청,02-700-5031,8/19/2022
G0303,서울특별시,송파구,특별시도,,위례중앙로,2,서울특별시 송파구 장지동 938,서울특별시 송파구 장지동 938,37.47456576,127.1351629,위례중앙지하차도 진출부,1,50,,,,2018,서울특별시경찰청,02-700-5031,8/19/2022
G0362,서울특별시,서대문구,특별시도,,세검정로,1,서울특별시 서대문구 세검정로 74,,37.5941306,126.9483013,홍은IC 진입 전,2,50,,,,2017,서울특별시경찰청,02-700-5031,8/19/2022
G0558,서울특별시,강동구,특별시도,,아리수로,2,서울특별시 강동구 아리수로 306-1,,37.56260049,127.1622722,고덕미니카공업사 건너편,2,50,,,,2018,서울특별시경찰청,02-700-5031,8/19/2022
G0559,서울특별시,종로구,특별시도,,지봉로,2,서울특별시 종로구 지봉로 88,,37.577936,127.015262,서울숭인동우체국 건너편,2,40,,,,2017,서울특별시경찰청,02-700-5031,8/19/2022
G0560,서울특별시,성북구,특별시도,,월계로,1,서울특별시 성북구 월계로 152,,37.61793756,127.043358,그린빌아파트 앞,2,50,,,,2017,서울특별시경찰청,02-700-5031,8/19/2022
G0561,서울특별시,성동구,특별시도,,왕십리로,1,서울특별시 성동구 왕십리로 236,,37.55784407,127.0413311,한양대병원 교차로,2,50,,,,2017,서울특별시경찰청,02-700-5031,8/19/2022
G0562,서울특별시,중랑구,특별시도,,용마산로,1,서울특별시 중랑구 용마산로 278,,37.57741203,127.0909395,성원아파트 102동 앞,2,50,,,,2017,서울특별시경찰청,02-700-5031,8/19/2022
G0563,서울특별시,중랑구,일반국도,3,동일로,2,서울특별시 중랑구 동일로 911,,37.61180428,127.0772017,먹골역 교차로,2,50,,,,2017,서울특별시경찰청,02-700-5031,8/19/2022
G0564,서울특별시,관악구,특별시도,,남부순환로,1,서울특별시 관악구 남부순환로 1766,,37.48170083,126.9461146,목포회센터 건너편,2,50,,,,2017,서울특별시경찰청,02-700-5031,8/19/2022
G0565,서울특별시,서초구,특별시도,,서운로,2,서울특별시 서초구 서운로 35,,37.49156467,127.025618,서이초교 교차로,2,30,,,2,2017,서울특별시경찰청,02-700-5031,8/19/2022
G0566,서울특별시,노원구,특별시도,,덕릉로,1,서울특별시 노원구 덕릉로 443,,37.64628513,127.0578083,상천초등학교 정문 앞,2,50,,,2,2017,서울특별시경찰청,02-700-5031,8/19/2022
G0567,서울특별시,강남구,고속국도,61,분당-수서간 고속화도로,2,서울특별시 강남구 수서동 720,서울특별시 강남구 수서동 720,37.48965405,127.1053467,수서한아름아파트 앞,1,80,,,,2017,서울특별시경찰청,02-700-5031,8/19/2022
G0568,서울특별시,영등포구,특별시도,,도림천로,1,서울특별시 영등포구 도림천로 417,,37.48794838,126.89787,구로1교 교차로,1,50,,,,2017,서울특별시경찰청,02-700-5031,8/19/2022
G0569,서울특별시,용산구,고속국도,70,강변북로,2,서울특별시 용산구 이촌동 302-194,서울특별시 용산구 이촌동 302-194,37.51635026,126.9759691,이촌한강공원 진입램프,1,80,,,,2017,서울특별시경찰청,02-700-5031,8/19/2022
G0570,서울특별시,동대문구,고속국도,61,동부간선도로,2,서울특별시 동대문구 이문동 352-1,서울특별시 동대문구 이문동 352-1,37.60575145,127.0709124,대우푸르지오아파트 앞,1,80,,,,2017,서울특별시경찰청,02-700-5031,8/19/2022
G0571,서울특별시,강서구,고속국도,88,올림픽대로,2,서울특별시 강서구 방화동 46-5,서울특별시 강서구 방화동 46-5,37.585127,126.8185107,방화차량기지 앞,1,80,,,,2017,서울특별시경찰청,02-700-5031,8/19/2022
G0572,서울특별시,강동구,고속국도,88,올림픽대로,2,서울특별시 강동구 고덕동 366-24,서울특별시 강동구 고덕동 366-24,37.57047497,127.1583937,음식물재활용센터 건너편,1,60,,,,2017,서울특별시경찰청,02-700-5031,8/19/2022
G0573,서울특별시,영등포구,고속국도,88,올림픽대로,2,서울특별시 영등포구 신길동 4900-1,서울특별시 영등포구 신길동 4900-1,37.51594947,126.9234098,한국제과학교 앞,1,80,,,,2017,서울특별시경찰청,02-700-5031,8/19/2022
G0574,서울특별시,도봉구,특별시도,,노해로,2,서울특별시 도봉구 노해로 239,,37.65163245,127.034672,반석교회 앞,1,30,1,0.894,2,2017,서울특별시경찰청,02-700-5031,8/19/2022
G0575,서울특별시,도봉구,특별시도,,노해로,2,서울특별시 도봉구 노해로 152,,37.6481984,127.026816,쌍문119안전센터 건너편,1,30,2,,2,2017,서울특별시경찰청,02-700-5031,8/19/2022
G0731,서울특별시,성북구,특별시도,,정릉로,2,서울특별시 성북구 정릉로 77,,37.61028784,126.9985206,국민대 7호관 건너편,2,50,,,,2018,서울특별시경찰청,02-700-5031,8/19/2022
G0732,서울특별시,관악구,특별시도,,난곡로,1,서울특별시 관악구 난곡로 84,,37.4629028,126.9193909,큰믿음유신교회 앞,2,30,,,2,2018,서울특별시경찰청,02-700-5031,8/19/2022
G0733,서울특별시,강동구,일반국도,43,천호대로,2,서울특별시 강동구 상일동 464-4,,37.544306,127.16672,"초이주유소앞(버스, 2차로)",2,50,,,,2018,서울특별시경찰청,02-700-5031,8/19/2022
G0734,서울특별시,강동구,일반국도,43,천호대로,2,서울특별시 강동구 상일동 464-4,,37.544305,127.166726,"초이주유소앞(3,4차로)",2,50,,,,2018,서울특별시경찰청,02-700-5031,8/19/2022
G0735,서울특별시,강동구,일반국도,43,천호대로,1,경기도 하남시 초이동 65-9,,37.544355,127.167418,초이주유소 건너편,2,50,,,,2018,서울특별시경찰청,02-700-5031,8/19/2022
G0820,서울특별시,노원구,특별시도,,월계로,1,서울특별시 노원구 월계로 298,,37.62667063,127.0547126,월계문화체육센터 앞,2,50,,,,2018,서울특별시경찰청,02-700-5031,8/19/2022
G0821,서울특별시,서초구,특별시도,,서운로,1,서울특별시 서초구 서운로 104,,37.4934156,127.0264914,래미안서초에스티지S 101동 앞,2,30,,,2,2018,서울특별시경찰청,02-700-5031,8/19/2022
G1144,서울특별시,중구,특별시도,,삼일대로,1,서울특별시 중구 삼일대로 358,,37.56648901,126.9881037,을지로2가 교차로,2,50,,,,2018,서울특별시경찰청,02-700-5031,8/19/2022
G1145,서울특별시,서초구,특별시도,,강남대로,2,서울특별시 서초구 강남대로 221,,37.4836851,127.0341178,양재역 교차로,2,50,,,,2018,서울특별시경찰청,02-700-5031,8/19/2022
G1146,서울특별시,서초구,특별시도,,강남대로,1,서울특별시 서초구 강남대로 48-6,,37.46912869,127.0400323,aT센터 교차로,2,50,,,,2018,서울특별시경찰청,02-700-5031,8/19/2022
G1220,서울특별시,노원구,특별시도,,월계로,2,서울특별시 노원구 월계로 298,,37.62667063,127.0547126,월계문화체육센터 건너편,2,50,,,,2018,서울특별시경찰청,02-700-5031,8/19/2022
G1221,서울특별시,서초구,특별시도,,잠원로,1,서울특별시 서초구 잠원로 130,,37.51488012,127.0085382,아크로리버뷰 103동 건너편,2,50,,,,2019,서울특별시경찰청,02-700-5031,8/19/2022
G1273,서울특별시,영등포구,특별시도,,양평로,1,서울특별시 영등포구 양평로 70-1,,37.53549738,126.8991927,당산119안전센터 앞,2,50,,,,2018,서울특별시경찰청,02-700-5031,8/19/2022
G1301,서울특별시,광진구,특별시도,,천호대로,1,서울특별시 광진구 천호대로 701,,37.54965862,127.092484,새밭교회 앞,2,50,,,,2018,서울특별시경찰청,02-700-5031,8/19/2022
G1302,서울특별시,광진구,특별시도,,천호대로,2,서울특별시 광진구 천호대로 808,,37.54507352,127.1027396,광장현대홈타운12차아파트 1201동 앞,2,50,,,,2018,서울특별시경찰청,02-700-5031,8/19/2022
G1303,서울특별시,은평구,특별시도,,가좌로,1,서울특별시 은평구 가좌로 391,,37.6004849,126.9038083,신사시티아파트 101동 건너편,2,50,,,,2018,서울특별시경찰청,02-700-5031,8/19/2022
G1304,서울특별시,성동구,특별시도,,행당로,1,서울특별시 성동구 행당로 41,,37.55578118,127.0239202,e편한세상금호파크힐스아파트 115동 앞,2,30,,,2,2018,서울특별시경찰청,02-700-5031,8/19/2022
G1305,서울특별시,중구,특별시도,,왕십리로,1,서울특별시 중구 신당동 17-1,,37.565345,127.023338,성동고교 교차로,2,50,,,,2018,서울특별시경찰청,02-700-5031,8/19/2022
G1306,서울특별시,중구,특별시도,,퇴계로,2,서울특별시 중구 퇴계로 397,,37.56551016,127.0158308,신당역 교차로,2,50,,,,2018,서울특별시경찰청,02-700-5031,8/19/2022
G1369,서울특별시,관악구,특별시도,,은천로,2,서울특별시 관악구 은천로 79,,37.486863,126.944001,성도교회 앞,2,30,,,2,2020,서울특별시경찰청,02-700-5031,8/19/2022
G1370,서울특별시,관악구,특별시도,,호암로,1,서울특별시 관악구 호암로 546,,37.466102,126.931928,미림여고 앞,2,40,,,,2020,서울특별시경찰청,02-700-5031,8/19/2022
G1371,서울특별시,관악구,특별시도,,관악로,2,서울특별시 관악구 신림동 150-56,서울특별시 관악구 신림동 150-56,37.467555,126.949202,서울대정문 교차로,2,50,,,,2020,서울특별시경찰청,02-700-5031,8/19/2022
G1470,서울특별시,서초구,특별시도,,과천대로,1,서울특별시 서초구 과천대로 854,,37.4681787,126.9870126,사당IC 진입전,2,50,,,,2019,서울특별시경찰청,02-700-5031,8/19/2022
G1471,서울특별시,관악구,특별시도,,과천대로,2,서울특별시 관악구 과천대로 851,,37.4665469,126.9872769,사당IC 진입전 건너편,2,50,,,,2019,서울특별시경찰청,02-700-5031,8/19/2022
G1472,서울특별시,관악구,특별시도,,과천대로,2,서울특별시 관악구 과천대로 909,,37.4714704,126.9824665,홈플러스 서울남현점 앞,2,50,,,,2019,서울특별시경찰청,02-700-5031,8/19/2022
G1473,서울특별시,성동구,특별시도,,고산자로,1,서울특별시 성동구 고산자로 197,,37.55762633,127.0338809,행당초등학교 앞,2,50,,,,2018,서울특별시경찰청,02-700-5031,8/19/2022
G1474,서울특별시,마포구,특별시도,,성암로,2,서울특별시 마포구 성암로 46,,37.56971056,126.9116078,생명의교회 앞,2,50,,,,2019,서울특별시경찰청,02-700-5031,8/19/2022
G1727,서울특별시,서초구,특별시도,,과천대로,1,서울특별시 서초구 방배동 산 191-1,서울특별시 서초구 방배동 산 191-1,37.45980808,126.9877421,남태령고개,1,50,,,,2019,서울특별시경찰청,02-700-5031,8/19/2022
G1728,서울특별시,송파구,특별시도,,양재대로,2,서울특별시 송파구 양재대로 932,,37.49453769,127.1087136,송파헬리오시티아파트 112동 앞,2,50,,,,2019,서울특별시경찰청,02-700-5031,8/19/2022
G1729,서울특별시,송파구,특별시도,,양재대로,1,서울특별시 송파구 양재대로 932,,37.49453769,127.1087136,서울친환경유통센터 앞,2,50,,,,2019,서울특별시경찰청,02-700-5031,8/19/2022
G1948,서울특별시,강동구,특별시도,,고덕로,1,서울특별시 강동구 고덕로 262,,37.55466766,127.1546222,고덕역 4번출구 앞,1,40,,,,2019,서울특별시경찰청,02-700-5031,8/19/2022
G1949,서울특별시,용산구,특별시도,,서빙고로,1,서울특별시 용산구 서빙고로 137,,37.52470224,126.9777402,용산가족공원 앞,1,50,,,,2019,서울특별시경찰청,02-700-5031,8/19/2022
G1950,서울특별시,동대문구,특별시도,,사가정로,1,서울특별시 동대문구 사가정로 190,,37.57734724,127.064387,전농우성아파트 1동 앞,1,30,,,2,2019,서울특별시경찰청,02-700-5031,8/19/2022
G1951,서울특별시,강서구,특별시도,,남부순환로,1,서울특별시 강서구 남부순환로 223,,37.545878,126.821914,서울자동차운전전문학원 건너편,1,50,,,,2019,서울특별시경찰청,02-700-5031,8/19/2022
G1952,서울특별시,양천구,특별시도,,남부순환로,1,서울특별시 양천구 남부순환로 371,,37.534243,126.8299211,서부여성발전센터 앞,1,50,,,,2019,서울특별시경찰청,02-700-5031,8/19/2022
G1953,서울특별시,마포구,특별시도,,마포대로,1,서울특별시 마포구 마포대로 108,,37.54440565,126.951696,공덕오거리,2,50,,,,2019,서울특별시경찰청,02-700-5031,8/19/2022
G1954,서울특별시,강남구,일반국도,47,영동대로,2,서울특별시 강남구 영동대로 647,,37.51965028,127.0566188,경기고교 앞 사거리,2,50,,,,2019,서울특별시경찰청,02-700-5031,8/19/2022
G1955,서울특별시,성동구,특별시도,,고산자로,2,서울특별시 성동구 고산자로 160,,37.55433983,127.0348842,응봉사거리,2,50,,,,2019,서울특별시경찰청,02-700-5031,8/19/2022
G1956,서울특별시,영등포구,일반국도,46,여의대로,2,서울특별시 영동포구 여의대로 38,,37.524274,126.921251,여의도공원 앞 교차로,2,50,,,,2019,서울특별시경찰청,02-700-5031,8/19/2022
G1957,서울특별시,송파구,일반국도,3,송파대로,2,서울특별시 송파구 송파대로 288,,37.49504339,127.1170459,가락시장(가락몰) 앞,2,50,,,,2019,서울특별시경찰청,02-700-5031,8/19/2022
G1958,서울특별시,동대문구,일반국도,6,망우로,1,서울특별시 동대문구 망우로 34,,37.58837916,127.057047,진성빌딩 앞,2,50,,,,2019,서울특별시경찰청,02-700-5031,8/19/2022
G1959,서울특별시,은평구,일반국도,1,증산로,2,서울특별시 은평구 증산로 475,,37.59864282,126.9153369,신사오거리,2,50,,,,2019,서울특별시경찰청,02-700-5031,8/19/2022
G1960,서울특별시,동대문구,일반국도,6,왕산로,1,서울특별시 동대문구 왕산로 104,,37.57794903,127.0350525,제기동역 교차로,2,50,,,,2019,서울특별시경찰청,02-700-5031,8/19/2022
G1961,서울특별시,영등포구,특별시도,,도림로,2,서울특별시 영등포구 도림로 233,,37.49920079,126.9047873,신길광장공원 교차로,2,50,,,,2019,서울특별시경찰청,02-700-5031,8/19/2022
G1962,서울특별시,구로구,특별시도,,개봉로,2,서울특별시 구로 개봉로 63,,37.491522,126.855854,개봉고가차도 종점,2,50,,,,2019,서울특별시경찰청,02-700-5031,8/19/2022
G1963,서울특별시,성북구,특별시도,,정릉로,1,서울특별시 성북구 정릉로 321,,37.60282033,127.0192113,길음119안전센터 앞,2,50,,,,2019,서울특별시경찰청,02-700-5031,8/19/2022
G1964,서울특별시,마포구,일반국도,6,신촌로,1,서울특별시 마포구 신촌로 203,,37.556993,126.952264,프라자약국 앞,2,50,,,,2019,서울특별시경찰청,02-700-5031,8/19/2022
G1965,서울특별시,강남구,특별시도,,언주로,2,서울특별시 강남구 언주로 107,,37.48359518,127.0519307,현대2차아파트 204동 앞,2,50,,,,2019,서울특별시경찰청,02-700-5031,8/19/2022
G1966,서울특별시,동작구,특별시도,,보라매로,1,서울특별시 동작구 보라매로 70,,37.49577317,126.9289798,보라매e편한세상아파트 102동 앞,2,50,,,,2019,서울특별시경찰청,02-700-5031,8/19/2022
G1967,서울특별시,동대문구,특별시도,,천호대로,1,서울특별시 동대문구 천호대로 307,,37.56579837,127.0547622,답십리역사거리,2,50,,,,2019,서울특별시경찰청,02-700-5031,8/19/2022
G1968,서울특별시,관악구,특별시도,,봉천로,1,서울특별시 관악구 봉천로 309,,37.48655851,126.9351477,은천로입구 교차로,2,50,,,,2019,서울특별시경찰청,02-700-5031,8/19/2022
G1969,서울특별시,양천구,특별시도,,가로공원로,1,서울특별시 양천구 가로공원로 95,,37.53586515,126.8264891,광음교회 건너편,2,30,,,,2019,서울특별시경찰청,02-700-5031,8/19/2022
G1970,서울특별시,관악구,특별시도,,쑥고개로,1,서울특별시 관악구 쑥고개로 56,,37.479581,126.9427157,관악초등학교 입구,2,30,,,2,2019,서울특별시경찰청,02-700-5031,8/19/2022
G1971,서울특별시,노원구,특별시도,,동일로,2,서울특별시 노원구 동일로 1745,,37.68450319,127.0551852,수락초등학교 앞,2,50,,,2,2019,서울특별시경찰청,02-700-5031,8/19/2022
G1972,서울특별시,성북구,특별시도,,고려대로,2,서울특별시 성북구 고려대로 23-1,,37.58637065,127.021897,안암동새마을금고 본점 앞,2,30,,,2,2019,서울특별시경찰청,02-700-5031,8/19/2022
G1973,서울특별시,강북구,특별시도,,오현로,1,서울특별시 강북구 오현로 189,,37.62875803,127.0390675,번동초등학교 앞,2,30,,,2,2019,서울특별시경찰청,02-700-5031,8/19/2022
G1974,서울특별시,도봉구,특별시도,,덕릉로,1,서울특별시 도봉구 덕릉로 350,,37.64357608,127.0483323,창동주공4단지아파트 401동 앞,2,50,,,,2019,서울특별시경찰청,02-700-5031,8/19/2022
G1975,서울특별시,광진구,특별시도,,구의강변로,1,서울특별시 광진구 구의강변로 69,,37.53709659,127.0922888,구남초교 건너편,2,30,,,2,2019,서울특별시경찰청,02-700-5031,8/19/2022
G1976,서울특별시,서초구,특별시도,,방배로,1,서울특별시 서초구 방배로 260,,37.496404,126.9901565,서래초등학교 앞,2,30,,,2,2019,서울특별시경찰청,02-700-5031,8/19/2022
G1977,서울특별시,동작구,특별시도,,여의대방로,1,서울특별시 동작구 여의대방로 74,,37.496444,126.914454,경남교수아파트 앞,2,50,,,,2019,서울특별시경찰청,02-700-5031,8/19/2022
G1978,서울특별시,양천구,특별시도,,신목로,1,서울특별시 양천구 신목로 34,,37.51865983,126.8739583,신정교서단 교차로,2,50,,,,2019,서울특별시경찰청,02-700-5031,8/19/2022
G1979,서울특별시,마포구,특별시도,,만리재로,2,서울특별시 마포구 만리재로 48,,37.54543847,126.9560837,신덕성결교회 건너편,2,50,,,,2019,서울특별시경찰청,02-700-5031,8/19/2022
G1980,서울특별시,마포구,일반국도,48,성산로,1,서울특별시 마포구 성산로 2,,37.55779,126.894902,성산대교 북단,1,50,,,,2019,서울특별시경찰청,02-700-5031,8/19/2022
G1981,서울특별시,강서구,특별시도,,하늘길,2,서울특별시 강서구 하늘길 78,,37.56090185,126.7997108,한국공항공사입구 교차로,2,30,,,,2019,서울특별시경찰청,02-700-5031,8/19/2022
G1982,서울특별시,강서구,특별시도,,하늘길,2,서울특별시 강서구 하늘길 38,,37.57136985,126.8029604,서울김포비지니스항공센터 앞,2,40,,,,2019,서울특별시경찰청,02-700-5031,8/19/2022
G1983,서울특별시,강서구,특별시도,,하늘길,2,서울특별시 강서구 하늘길 210,,37.55325498,126.8093237,김포세관화물청사 B게이트 앞,1,40,,,,2019,서울특별시경찰청,02-700-5031,8/19/2022
G1984,서울특별시,송파구,특별시도,,양재대로,2,서울특별시 송파구 송파동 166-1,서울특별시 송파구 송파동 166-1,37.50278258,127.1216724,웃말공원 건너편,2,50,,,,2019,서울특별시경찰청,02-700-5031,8/19/2022
G1985,서울특별시,강동구,특별시도,,아리수로,1,서울특별시 강동구 아리수로 206,,37.561787,127.151225,고덕근린공원 교차로,2,50,,,,2019,서울특별시경찰청,02-700-5031,8/19/2022
G1986,서울특별시,은평구,일반국도,1,통일로,2,서울특별시 은평구 통일로 1021,,37.6336094,126.9161525,은평성모병원 교차로,2,50,,,,2019,서울특별시경찰청,02-700-5031,8/19/2022
G1987,서울특별시,은평구,일반국도,1,통일로,1,서울특별시 은평구 통일로 1034,,37.63528107,126.9176562,은평성모병원 교차로,2,50,,,,2019,서울특별시경찰청,02-700-5031,8/19/2022
G1988,서울특별시,은평구,특별시도,,진관2로,1,서울특별시 은평구 진관2로 19,,37.63485353,126.9195847,우리은행은평뉴타운지점 건너편,2,40,,,,2019,서울특별시경찰청,02-700-5031,8/19/2022
G1989,서울특별시,은평구,특별시도,,진관1로,2,서울특별시 은평구 진관1로 21-39,,37.63386256,126.9185725,메이플카운티2차오피스텔 앞,2,40,,,,2019,서울특별시경찰청,02-700-5031,8/19/2022
G2258,서울특별시,동작구,특별시도,,사달로,1,서울특별시 동작구 사달로 124,,37.50457,126.960869,중앙사대부속중학교 앞,2,30,,,2,2019,서울특별시경찰청,02-700-5031,8/19/2022
G2259,서울특별시,금천구,일반국도,1,서부간선도로,1,서울특별시 금천구 가산동 637-1,서울특별시 금천구 가산동 637-1,37.46611333,126.8858457,한진P&C 본사 앞,1,80,,,,2018,서울특별시경찰청,02-700-5031,8/19/2022
G2260,서울특별시,송파구,특별시도,,양재대로,2,서울특별시 송파구 양재대로 932,,37.49453769,127.1087136,가락시장 교차로,2,50,,,,2019,서울특별시경찰청,02-700-5031,8/19/2022
G2261,서울특별시,송파구,특별시도,,양재대로,1,서울특별시 송파구 양재대로 932,,37.49453769,127.1087136,가락시장 교차로,2,50,,,,2019,서울특별시경찰청,02-700-5031,8/19/2022
G2262,서울특별시,송파구,일반국도,3,송파대로,1,서울특별시 송파구 송파대로 366,,37.5007231,127.111792,송파역 1번출구 250m 후방,2,50,,,,2019,서울특별시경찰청,02-700-5031,8/19/2022
G2263,서울특별시,송파구,일반국도,3,송파대로,2,서울특별시 송파구 송파대로 345,,37.49761457,127.1025318,송파역 4번출구 100m 전방,2,50,,,,2019,서울특별시경찰청,02-700-5031,8/19/2022
G2264,서울특별시,서초구,특별시도,,신반포로23길,2,서울특별시 서초구 신반포로23길 41,,37.51165835,127.0044694,잠원시티아파트 앞,2,30,,,2,2019,서울특별시경찰청,02-700-5031,8/19/2022
G2265,서울특별시,강북구,특별시도,,오현로,2,서울특별시 강북구 오현로 9,,37.61700008,127.0314657,서울송중초등학교,1,30,,,2,2020,서울특별시경찰청,02-700-5031,8/19/2022
G2630,서울특별시,서초구,특별시도,,서초대로,2,서울특별시 서초구 서초대로 121,,37.48852979,126.9954614,치유상담대학원대학교 앞,2,50,,,,2019,서울특별시경찰청,02-700-5031,8/19/2022
G2631,서울특별시,서초구,특별시도,,서초대로,1,서울특별시 서초구 서초대로 219,,37.49240761,127.0052734,서초그림책도서관 앞,2,50,,,,2019,서울특별시경찰청,02-700-5031,8/19/2022
G2632,서울특별시,서초구,특별시도,,서초대로,1,서울특별시 서초구 서초대로 108,,37.48752619,126.9942016,내방역 교차로,2,50,,,,2019,서울특별시경찰청,02-700-5031,8/19/2022
G2633,서울특별시,강서구,일반국도,6,공항대로,1,서울특별시 강서구 공항대로 376,,37.55684827,126.8471933,KBS스포츠월드입구 건너편,2,50,,,,2019,서울특별시경찰청,02-700-5031,8/19/2022
G2634,서울특별시,강서구,특별시도,,방화대로34길,1,서울특별시 강서구 방화대로34길 2,,37.56815047,126.8180329,공항중학교 건너편,2,50,,,,2019,서울특별시경찰청,02-700-5031,8/19/2022
G2635,서울특별시,중구,특별시도,,난계로,1,서울특별시 중구 신당동 170-32,서울특별시 중구 신당동 170-32,37.56419276,127.0244387,신당초교 건너편,2,30,,,2,2019,서울특별시경찰청,02-700-5031,8/19/2022
G2636,서울특별시,강남구,특별시도,,헌릉로,1,서울특별시 강남구 세곡동 389-5,서울특별시 강남구 세곡동 389-5,37.46476211,127.0943281,세곡푸르지오아파트 건너편,1,50,,,,2019,서울특별시경찰청,02-700-5031,8/19/2022
G2759,서울특별시,서초구,특별시도,,헌릉로8길,2,서울특별시 서초구 내곡동 헌릉로8길 42,,37.45455,127.061688,서울언남초 건너편,2,30,,,2,2019,서울특별시경찰청,02-700-5031,8/19/2022
G2760,서울특별시,서초구,특별시도,,동산로6길,2,서울특별시 서초구 동산로6길 3,,37.470875,127.0434517,영동농협 본점,2,30,,,2,2019,서울특별시경찰청,02-700-5031,8/19/2022
G2761,서울특별시,서초구,특별시도,,남부순환로,2,서울특별시 서초구 남부순환로 2248,,37.47216184,126.9971159,서울특별시교육연수원 건너편,2,50,,,,2019,서울특별시경찰청,02-700-5031,8/19/2022
G2762,서울특별시,서초구,특별시도,,헌릉로,1,서울특별시 서초구 헌릉로 226,,37.45494914,127.0649235,내곡파출소 앞,2,50,,,,2019,서울특별시경찰청,02-700-5031,8/19/2022
G2825,서울특별시,서대문구,고속국도,30,내부순환로,1,서울특별시 서대문구 홍제동 산 1-100,서울특별시 서대문구 홍제동 산 1-100,37.59405017,126.9550799,홍지문터널입구 1차로(성동방면),1,70,1,7.954,,2020,서울특별시경찰청,02-700-5031,8/19/2022
G2826,서울특별시,서대문구,고속국도,30,내부순환로,1,서울특별시 서대문구 홍제동 산 1-100,서울특별시 서대문구 홍제동 산 1-100,37.59405017,126.9550799,"홍지문터널입구 2,3차로(성동방면)",1,70,1,7.954,,2020,서울특별시경찰청,02-700-5031,8/19/2022
G2827,서울특별시,성북구,고속국도,30,내부순환로,2,서울특별시 성북구 정릉동 산 1-285,서울특별시 성북구 정릉동 산 1-285,37.60895731,126.9979379,국민대입구 진입램프(성동방면),1,40,,,,2020,서울특별시경찰청,02-700-5031,8/19/2022
G2828,서울특별시,성북구,고속국도,30,내부순환로,2,서울특별시 성북구 정릉동 647-39,서울특별시 성북구 정릉동 647-39,37.607444,127.0023199,정릉 진출램프(성동방면),1,40,,,,2020,서울특별시경찰청,02-700-5031,8/19/2022
G2829,서울특별시,성북구,고속국도,30,내부순환로,2,서울특별시 성북구 하월곡동 104-134,서울특별시 성북구 하월곡동 104-134,37.60401813,127.0309274,길음 진출램프(성동방면),1,40,,,,2020,서울특별시경찰청,02-700-5031,8/19/2022
G2830,서울특별시,성북구,고속국도,30,내부순환로,2,서울특별시 성북구 종암동 90-1,서울특별시 성북구 종암동 90-1,37.602516,127.0349031,"하월곡분기점 1,2차로(강변북로방면)",1,70,2,,,2020,서울특별시경찰청,02-700-5031,8/19/2022
G2831,서울특별시,성북구,고속국도,30,내부순환로,2,서울특별시 성북구 종암동 90-1,서울특별시 성북구 종암동 90-1,37.602516,127.0349031,"하월곡분기점 3,4차로(북부간선방면)",1,70,2,,,2020,서울특별시경찰청,02-700-5031,8/19/2022
G2832,서울특별시,성북구,고속국도,30,내부순환로,1,서울특별시 성북구 하월곡동 104-134,서울특별시 성북구 하월곡동 104-134,37.60401813,127.0309274,이마트하월곡점 건너편 1차로(성산방면),1,70,1,7.99,,2020,서울특별시경찰청,02-700-5031,8/19/2022
G2833,서울특별시,성북구,고속국도,30,내부순환로,1,서울특별시 성북구 하월곡동 104-134,서울특별시 성북구 하월곡동 104-134,37.60401813,127.0309274,"이마트하월곡점 건너편 2,3차로(성산방면)",1,70,1,7.99,,2020,서울특별시경찰청,02-700-5031,8/19/2022
G2834,서울특별시,성북구,고속국도,30,내부순환로,1,서울특별시 성북구 하월곡동 230-2,서울특별시 성북구 하월곡동 230-2,37.60507299,127.0313901,길음 진입램프(성산방면),1,40,,,,2020,서울특별시경찰청,02-700-5031,8/19/2022
G2835,서울특별시,성북구,고속국도,30,내부순환로,1,서울특별시 성북구 정릉동 680-1,서울특별시 성북구 정릉동 680-1,37.60708228,127.0061416,정릉 진입램프(성산방면),1,40,,,,2020,서울특별시경찰청,02-700-5031,8/19/2022
G2836,서울특별시,성북구,고속국도,30,내부순환로,1,서울특별시 성북구 정릉동 590-15,서울특별시 성북구 정릉동 590-15,37.608932,126.998819,국민대입구 진출램프(성산방면),1,40,,,,2020,서울특별시경찰청,02-700-5031,8/19/2022
G2837,서울특별시,서대문구,고속국도,30,내부순환로,2,서울특별시 서대문구 홍제동 287-207,서울특별시 서대문구 홍제동 287-207,37.59607831,126.9524663,홍은램프200m전방 1차로(성산방면),1,70,2,,,2020,서울특별시경찰청,02-700-5031,8/19/2022
G2838,서울특별시,서대문구,고속국도,30,내부순환로,2,서울특별시 서대문구 홍제동 287-207,서울특별시 서대문구 홍제동 287-207,37.59607831,126.9524663,"홍은램프200m전방 2,3차로(성산방면)",1,70,2,,,2020,서울특별시경찰청,02-700-5031,8/19/2022
G3197,서울특별시,은평구,특별시도,,응암로,1,서울특별시 은평구 응암로 278,,37.596344,126.9196996,백련산SK뷰아이파크 103동 앞,2,50,,,,2019,서울특별시경찰청,02-700-5031,8/19/2022
G3198,서울특별시,마포구,특별시도,,월드컵북로,1,서울특별시 마포구 월드컵북로 502,,37.58504438,126.8798696,상암월드컵파크9단지 건너편,2,50,,,,2020,서울특별시경찰청,02-700-5031,8/19/2022
G3199,서울특별시,마포구,특별시도,,월드컵북로,2,서울특별시 마포구 월드컵북로 497,,37.5844435,126.8795112,상암월드컵파크9단지 정문 앞,2,50,,,,2020,서울특별시경찰청,02-700-5031,8/19/2022
G3200,서울특별시,용산구,특별시도,,녹사평대로58길,1,서울특별시 용산구 이태원동 262-48,서울특별시 용산구 이태원동 262-48,37.54420955,126.9897731,남산2호터널: 시점,1,40,1,1.722,,2020,서울특별시경찰청,02-700-5031,8/19/2022
G3201,서울특별시,중구,특별시도,,녹사평대로58길,1,서울특별시 중구 장충동2가 산 7-22,서울특별시 중구 장충동2가 산 7-22,37.55893664,126.9987376,남산2호터널: 종점,1,40,2,,,2020,서울특별시경찰청,02-700-5031,8/19/2022
G3202,서울특별시,중구,특별시도,,녹사평대로58길,2,서울특별시 중구 장충동2가 산 7-22,서울특별시 중구 장충동2가 산 7-22,37.55893664,126.9987376,남산2호터널: 시점,1,40,1,1.722,,2020,서울특별시경찰청,02-700-5031,8/19/2022
G3203,서울특별시,용산구,특별시도,,녹사평대로58길,2,서울특별시 용산구 이태원동 262-48,서울특별시 용산구 이태원동 262-48,37.54420955,126.9897731,남산2호터널: 종점,1,40,2,,,2020,서울특별시경찰청,02-700-5031,8/19/2022
G3397,서울특별시,금천구,특별시도,,남부순환로,2,서울특별시 금천구 남부순환로 1260,,37.47894796,126.8907516,디지털단지오거리,2,50,,,,2019,서울특별시경찰청,02-700-5031,8/19/2022
G3398,서울특별시,구로구,특별시도,,남부순환로,1,서울특별시 금천구 남부순환로 1260,,37.47894796,126.8907516,디지털단지오거리,2,50,,,,2019,서울특별시경찰청,02-700-5031,8/19/2022
G3399,서울특별시,성북구,특별시도,,한천로,2,서울특별시 성북구 한천로 693,,37.618368,127.054376,광운초등학교,2,30,,,2,2019,서울특별시경찰청,02-700-5031,8/19/2022
G3400,서울특별시,성북구,특별시도,,한천로,1,서울특별시 성북구 한천로 693,,37.618544,127.054454,광운초등학교,2,30,,,2,2019,서울특별시경찰청,02-700-5031,8/19/2022
G3519,서울특별시,강남구,특별시도,,도산대로,1,서울특별시 강남구 도산대로 202,,37.5194081,127.0286272,강남을지병원사거리,2,50,,,,2019,서울특별시경찰청,02-700-5031,8/19/2022
G3520,서울특별시,강동구,일반국도,43,천호대로,2,서울특별시 강동구 천호대로 1056,,37.53641884,127.1290369,LPG충전소 앞,2,50,,,,2019,서울특별시경찰청,02-700-5031,8/19/2022
G3521,서울특별시,강북구,특별시도,,덕릉로,1,서울특별시 강북구 덕릉로 147,,37.63536011,127.030127,도미노피자 건너편,2,50,,,,2019,서울특별시경찰청,02-700-5031,8/19/2022
G3522,서울특별시,광진구,일반국도,3,자양로,1,서울특별시 광진구 자양로 129,,37.53929468,127.0829295,Y타워 건너편,2,50,,,,2019,서울특별시경찰청,02-700-5031,8/19/2022
G3523,서울특별시,구로구,특별시도,,고척로,1,서울특별시 구로구 고척로 108-3,,37.50126067,126.8463654,개봉1동사거리,2,30,,,,2019,서울특별시경찰청,02-700-5031,8/19/2022
G3524,서울특별시,금천구,특별시도,,시흥대로,1,서울특별시 금천구 시흥대로 296,,37.45968419,126.8992833,롯데캐슬3차아파트 건너편,2,50,,,,2019,서울특별시경찰청,02-700-5031,8/19/2022
G3525,서울특별시,노원구,특별시도,,덕릉로112길,2,서울특별시 노원구 덕릉로112길 13,,37.66602909,127.078269,동아불암아파트 106동 건너편,2,40,,,,2019,서울특별시경찰청,02-700-5031,8/19/2022
G3526,서울특별시,동대문구,특별시도,,사가정로,1,서울특별시 동대문구 사가정로 225,,37.57893791,127.0701387,종로프라자약국,2,50,,,,2019,서울특별시경찰청,02-700-5031,8/19/2022
G3527,서울특별시,동작구,특별시도,,동작대로,2,서울특별시 동작구 동작대로 67,,37.48254699,126.9814807,더본병원 앞,2,50,,,,2019,서울특별시경찰청,02-700-5031,8/19/2022
G3528,서울특별시,동작구,특별시도,,현충로,2,서울특별시 동작구 현충로 210,,37.49982365,126.9784084,현충원 앞 교차로,2,50,,,,2019,서울특별시경찰청,02-700-5031,8/19/2022
G3529,서울특별시,마포구,특별시도,,마포대로,2,서울특별시 마포구 마포대로 137,,37.5467934,126.952657,KPX빌딩 앞,2,50,,,,2019,서울특별시경찰청,02-700-5031,8/19/2022
G3530,서울특별시,서대문구,특별시도,,수색로,1,서울특별시 서대문구 수색로 30,,37.56937385,126.915285,가좌역4번출구 건너편,2,50,,,,2019,서울특별시경찰청,02-700-5031,8/19/2022
G3531,서울특별시,성동구,특별시도,,왕십리로,2,서울특별시 성동구 왕십리로 359,,37.56394381,127.0300298,상왕십리역4번출구,2,50,,,,2019,서울특별시경찰청,02-700-5031,8/19/2022
G3532,서울특별시,성북구,특별시도,,동소문로,1,서울특별시 성북구 동소문로 14-1,,37.58898979,127.0078895,스타온누리약국 앞,2,50,,,,2019,서울특별시경찰청,02-700-5031,8/19/2022
G3533,서울특별시,영등포구,일반국도,46,여의대로,1,서울특별시 영등포구 여의대로 56,,37.5240382,126.9229018,여의도공원 앞 교차로,2,50,,,,2019,서울특별시경찰청,02-700-5031,8/19/2022
G3534,서울특별시,중랑구,특별시도,,봉화산로,1,서울특별시 중랑구 봉화산로 194,,37.60645263,127.094707,신한은행 신내동지점,2,50,,,,2019,서울특별시경찰청,02-700-5031,8/19/2022
G3535,서울특별시,양천구,특별시도,,중앙로,2,서울특별시 양천구 중앙로 121,,37.509761,126.858027,양천노인종합복지관 건너편,2,50,,,1,2019,서울특별시경찰청,02-700-5031,8/19/2022
G3536,서울특별시,강동구,특별시도,,진황도로,2,서울특별시 강동구 진황도로 190,,37.52926135,127.142984,보훈병원입구 교차로,2,30,,,2,2019,서울특별시경찰청,02-700-5031,8/19/2022
G3537,서울특별시,강서구,특별시도,,우현로,2,서울특별시 강서구 우현로 17,,37.54725959,126.843481,우장산휴먼빌아파트 앞,2,30,,,2,2019,서울특별시경찰청,02-700-5031,8/19/2022
G3538,서울특별시,동작구,특별시도,,매봉로,2,서울특별시 동작구 매봉로 37,,37.506881,126.9509954,예담어린이집 앞,2,30,,,2,2019,서울특별시경찰청,02-700-5031,8/19/2022
G3539,서울특별시,마포구,고속국도,70,강변북로,1,서울특별시 마포구 신정동 145-3,서울특별시 마포구 신정동 145-3,37.54403409,126.9298664,"서강대교 앞 1,2차로:시점",1,80,1,4.603,,2019,서울특별시경찰청,02-700-5031,8/19/2022
G3540,서울특별시,마포구,고속국도,70,강변북로,1,서울특별시 마포구 신정동 145-3,서울특별시 마포구 신정동 145-3,37.54403409,126.9298664,"서강대교 앞 3,4차로:시점",1,80,1,4.603,,2019,서울특별시경찰청,02-700-5031,8/19/2022
G3541,서울특별시,마포구,고속국도,70,강변북로,1,서울특별시 마포구 상암동 487-314,서울특별시 마포구 상암동 487-314,37.562181,126.888047,"난지센터 앞 1,2차로:종점",1,80,2,,,2019,서울특별시경찰청,02-700-5031,8/19/2022
G3542,서울특별시,마포구,고속국도,70,강변북로,1,서울특별시 마포구 상암동 487-314,서울특별시 마포구 상암동 487-314,37.562169,126.888063,"난지센터 앞 3,4차로:종점",1,80,2,,,2019,서울특별시경찰청,02-700-5031,8/19/2022
G3779,서울특별시,성북구,특별시도,,장월로,1,서울특별시 성북구 장월로 113,,37.61597724,127.0483468,미니스톱 건너편,2,30,,,2,2020,서울특별시경찰청,02-700-5031,8/19/2022
G3780,서울특별시,성북구,특별시도,,장위로,1,서울특별시 성북구 장위로 126,,37.61290464,127.0512425,장위볼링센터 앞,2,30,,,2,2020,서울특별시경찰청,02-700-5031,8/19/2022
G3792,서울특별시,강동구,특별시도,,명일로,1,서울특별시 강동구 명일로 104,,37.52831379,127.1425257,서울한산초정문 건너편,1,30,,,2,2020,서울특별시경찰청,02-700-5031,8/19/2022
G3809,서울특별시,성동구,특별시도,,금호로,2,서울특별시 성동구 금호로 30,,37.54615986,127.0253043,독서당인문아카데미센터 건너편:스콜존,2,30,,,2,2020,서울특별시경찰청,02-700-5031,8/19/2022
G3811,서울특별시,성동구,특별시도,,마장로,2,서울특별시 성동구 마장로 305,,37.566689,127.0433162,마장동주민센터 교차로,1,50,,,,2020,서울특별시경찰청,02-700-5031,8/19/2022
G3812,서울특별시,성동구,특별시도,,살곶이길,2,서울특별시 성동구 살곶이길 176,,37.56053219,127.049552,사근삼거리,2,50,,,,2020,서울특별시경찰청,02-700-5031,8/19/2022
G3813,서울특별시,성동구,특별시도,,뚝섬로,2,서울특별시 성동구 뚝섬로 338,,37.54034955,127.0482498,서울경일초교앞 교차로,2,30,,,,2020,서울특별시경찰청,02-700-5031,8/19/2022
G3814,서울특별시,성동구,특별시도,,독서당로,1,서울특별시 성동구 독서당로 373,,37.5497977,127.0300204,응봉파출소 건너편,2,50,,,,2020,서울특별시경찰청,02-700-5031,8/19/2022
G3815,서울특별시,성동구,특별시도,,마장로,1,서울특별시 성동구 마장로 141,,37.56787474,127.0255294,왕십리도선동주민센터 앞,2,50,,,2,2020,서울특별시경찰청,02-700-5031,8/19/2022
G3816,서울특별시,성동구,특별시도,,한림말길,1,서울특별시 성동구 한림말길 43,,37.54230974,127.0157855,서울옥정초정문 건너편,2,30,,,2,2020,서울특별시경찰청,02-700-5031,8/19/2022
G4033,서울특별시,송파구,특별시도,,위례중앙로,2,서울특별시 송파구 위례중앙로 10,,37.47548024,127.1282623,우호갈비 앞,2,50,,,,2020,서울특별시경찰청,02-700-5031,8/19/2022
G4034,서울특별시,송파구,특별시도,,위례중앙로,1,서울특별시 송파구 위례중앙로 10,,37.47548024,127.1282623,우호갈비 건너편,2,50,,,,2020,서울특별시경찰청,02-700-5031,8/19/2022
G4035,서울특별시,송파구,고속국도,100,서울외곽순환고속도로,1,서울특별시 송파구 장지동 647-39,서울특별시 송파구 장지동 647-39,37.47582566,127.1282587,송파IC 진출램프,2,30,,,,2020,서울특별시경찰청,02-700-5031,8/19/2022
G4036,서울특별시,종로구,특별시도,,삼일대로,1,서울특별시 종로구 삼일대로 428,,37.572764,126.987903,낙원상가(안국역 방면),1,30,,,,2020,서울특별시경찰청,02-700-5031,8/19/2022
G4037,서울특별시,종로구,특별시도,,삼일대로,2,서울특별시 종로구 삼일대로 428,,37.572764,126.987903,낙원상가(종로2가 방면),1,30,,,,2020,서울특별시경찰청,02-700-5031,8/19/2022
G4038,서울특별시,서초구,특별시도,,고무래로,1,서울특별시 서초구 고무래로 89,,37.5009526,127.0185009,원명초교 건너편,2,30,,,2,2020,서울특별시경찰청,02-700-5031,8/19/2022
G4039,서울특별시,서초구,특별시도,,서운로,1,서울특별시 서초구 서운로 221,,37.50209719,127.019869,래미안서초스위트아파트 103동 건너편,2,30,,,,2020,서울특별시경찰청,02-700-5031,8/19/2022
G4040,서울특별시,서초구,특별시도,,서운로,2,서울특별시 서초구 서운로 178,,37.49904877,127.0248915,서초초교 건너편,2,30,,,2,2020,서울특별시경찰청,02-700-5031,8/19/2022
G4041,서울특별시,서초구,특별시도,,남부순환로339길,2,서울특별시 서초구 남부순환로339길 38,,37.48529778,127.0221598,서일초교정문 건너편,1,30,,,2,2020,서울특별시경찰청,02-700-5031,8/19/2022
G4042,서울특별시,서초구,특별시도,,서초대로,2,서울특별시 서초구 서초대로 219,,37.49240761,127.0052734,서초그림책도서관 건너편,2,50,,,,2020,서울특별시경찰청,02-700-5031,8/19/2022
G4043,서울특별시,서초구,특별시도,,태봉로2길,1,서울특별시 서초구 태봉로2길 60,,37.4656521,127.0271812,서초네이처힐 301동 앞,2,30,,,2,2020,서울특별시경찰청,02-700-5031,8/19/2022
G4044,서울특별시,서초구,특별시도,,명달로,1,서울특별시 서초구 명달로 46,,37.48160984,127.005175,상문고교정문 건너편,2,50,,,,2020,서울특별시경찰청,02-700-5031,8/19/2022
G4045,서울특별시,서초구,특별시도,,효령로,1,서울특별시 서초구 효령로 336,,37.48602619,127.0209888,디월트 고객체험센터 앞,2,50,,,,2020,서울특별시경찰청,02-700-5031,8/19/2022
G4046,서울특별시,서초구,특별시도,,바우뫼로,2,서울특별시 서초구 바우뫼로 99,,37.47478856,127.0320819,천사유치원 앞,2,30,,,2,2020,서울특별시경찰청,02-700-5031,8/19/2022
G4047,서울특별시,서초구,특별시도,,바우뫼로,1,서울특별시 서초구 바우뫼로 99,,37.47478856,127.0320819,천사유치원 건너편,2,30,,,2,2020,서울특별시경찰청,02-700-5031,8/19/2022
G4048,서울특별시,서초구,특별시도,,나루터로,1,서울특별시 서초구 나루터로 15,,37.51713004,127.0113904,서울신동초교 정문 앞,2,30,,,2,2020,서울특별시경찰청,02-700-5031,8/19/2022
G4049,서울특별시,서초구,특별시도,,청계산로9길,1,서울특별시 서초구 청계산로9길 66,,37.45319549,127.0592678,유일교회 앞,2,30,,,2,2020,서울특별시경찰청,02-700-5031,8/19/2022
G4050,서울특별시,동작구,특별시도,,솔밭로,1,서울특별시 동작구 솔밭로 51,,37.48260194,126.9650863,행림초교 건너편,2,30,,,2,2020,서울특별시경찰청,02-700-5031,8/19/2022
G4114,서울특별시,송파구,특별시도,,동남로,1,서울특별시 송파구 문정동 199-1,서울특별시 송파구 문정동 199-1,37.487707,127.118846,올림픽훼밀리타운아파트 112동 건너편,2,50,,,,2020,서울특별시경찰청,02-700-5031,8/19/2022
G4115,서울특별시,송파구,특별시도,,동남로,2,서울특별시 송파구 문정동 150-14,서울특별시 송파구 문정동 150-14,37.488765,127.118071,올림픽훼밀리타운아파트 112동 앞,2,50,,,,2020,서울특별시경찰청,02-700-5031,8/19/2022
G4116,서울특별시,광진구,특별시도,,워커힐로,2,서울특별시 광진구 워커힐로 32,,37.544575,127.098311,양진초교 건너편,1,30,,,2,2020,서울특별시경찰청,02-700-5031,8/19/2022
G4117,서울특별시,송파구,특별시도,,거마로,1,서울특별시 송파구 거마로 4,,37.493354,127.14486,거여역 교차로,2,50,,,,2020,서울특별시경찰청,02-700-5031,8/19/2022
G4118,서울특별시,송파구,특별시도,,거마로,2,서울특별시 송파구 거마로 99,,37.50163572,127.148025,은빛노인요양전문기관,2,50,,,,2020,서울특별시경찰청,02-700-5031,8/19/2022
G4119,서울특별시,송파구,특별시도,,중대로,2,서울특별시 송파구 중대로 135,,37.495096,127.122427,경찰병원 교차로,2,50,,,,2020,서울특별시경찰청,02-700-5031,8/19/2022
G4120,서울특별시,송파구,특별시도,,송이로,1,서울특별시 송파구 송이로 123,,37.496415,127.123488,경찰병원 교차로,2,50,,,,2020,서울특별시경찰청,02-700-5031,8/19/2022
G4131,서울특별시,은평구,특별시도,,가좌로,1,서울특별시 은평구 가좌로 277,,37.59320424,126.9130774,서울신사초교 입구,2,30,,,2,2020,서울특별시경찰청,02-700-5031,8/19/2022
G4206,서울특별시,용산구,특별시도,,후암로,2,서울특별시 용산구 후암로 23-1,,37.548038,126.9777437,행남그랜드아파트 건너편,2,30,,,2,2020,서울특별시경찰청,02-700-5031,8/19/2022
G4207,서울특별시,노원구,특별시도,,화랑로,1,서울특별시 노원구 화랑로 570,,37.62208796,127.0897199,노원불빛정원 입구,2,50,,,,2020,서울특별시경찰청,02-700-5031,8/19/2022
G4208,서울특별시,노원구,특별시도,,화랑로,2,서울특별시 노원구 화랑로 570,,37.62208796,127.0897199,노원불빛정원 입구 건너편,2,50,,,,2020,서울특별시경찰청,02-700-5031,8/19/2022
G4209,서울특별시,노원구,특별시도,,마들로,1,서울특별시 노원구 마들로 86,,37.62358892,127.0687828,한내지혜의숲 앞,2,50,,,,2020,서울특별시경찰청,02-700-5031,8/19/2022
G4366,서울특별시,영등포구,특별시도,,대림로,1,서울특별시 영등포구 대림로 238,,37.50199297,126.8971139,하이카프라자 앞,2,50,,,,2020,서울특별시경찰청,02-700-5031,8/19/2022
G4367,서울특별시,영등포구,특별시도,,대림로,2,서울특별시 영등포구 대림로 231,,37.50118357,126.8967703,새마을금고 대림3동지점,2,50,,,,2020,서울특별시경찰청,02-700-5031,8/19/2022
G4368,서울특별시,영등포구,특별시도,,가마산로,1,서울특별시 영등포구 가마산로 330,,37.49880417,126.8963333,GS칼텍스 대청주유소,2,50,,,,2020,서울특별시경찰청,02-700-5031,8/19/2022
G4369,서울특별시,영등포구,특별시도,,가마산로,2,서울특별시 영등포구 가마산로 329,,37.49919276,126.8959131,GS칼텍스 대청주유소 건너편,2,50,,,,2020,서울특별시경찰청,02-700-5031,8/19/2022
G4370,서울특별시,영등포구,특별시도,,여의대방로,1,서울특별시 영등포구 여의도동 50,서울특별시 영등포구 여의도동 50,37.52135273,126.9373261,시범아파트 14동 앞,2,50,,,,2020,서울특별시경찰청,02-700-5031,8/19/2022
G4371,서울특별시,구로구,특별시도,,서해안로,2,서울특별시 구로구 서해안로 2283,,37.49095327,126.8390667,오류남초교입구,2,30,,,2,2020,서울특별시경찰청,02-700-5031,8/19/2022
G4372,서울특별시,구로구,특별시도,,디지털로27길,1,서울특별시 구로구 디지털로27길 65,,37.48392298,126.8904111,구로남초교,2,30,,,2,2020,서울특별시경찰청,02-700-5031,8/19/2022
G4394,서울특별시,도봉구,특별시도,,덕릉로60길,2,서울특별시 도봉구 덕릉로60길 93,,37.63653953,127.0420843,신창초교 건너편,1,30,,,2,2020,서울특별시경찰청,02-700-5031,8/19/2022
G4395,서울특별시,도봉구,특별시도,,마들로,1,서울특별시 도봉구 마들로 859-44,,37.68723271,127.0492672,누원초교 건너편,2,30,,,2,2020,서울특별시경찰청,02-700-5031,8/19/2022
G4396,서울특별시,은평구,특별시도,,진관1로,1,서울특별시 은평구 진관1로 21-20,,37.63304404,126.920989,은진초교 앞,2,30,,,2,2020,서울특별시경찰청,02-700-5031,8/19/2022
G4670,서울특별시,강서구,특별시도,,강서로,2,서울특별시 강서구 강서로 511,,37.57101654,126.8414692,대아아파트 앞 교차로,2,50,,,,2020,서울특별시경찰청,02-700-5031,8/19/2022
G4671,서울특별시,강서구,특별시도,,강서로,2,서울특별시 강서구 강서로 247,,37.54773,126.8360362,우장산역 교차로,2,50,,,,2020,서울특별시경찰청,02-700-5031,8/19/2022
G4672,서울특별시,강서구,일반국도,6,공항대로,1,서울특별시 강서구 공항대로 382,,37.55639584,126.8495472,KBS스포츠월드입구 교차로,2,50,,,,2020,서울특별시경찰청,02-700-5031,8/19/2022
G4673,서울특별시,강서구,일반국도,6,공항대로,1,서울특별시 강서구 공항대로 124,,37.55941461,126.8208132,마곡엠벨리 1102동 앞 교차로,2,50,,,,2020,서울특별시경찰청,02-700-5031,8/19/2022
G4674,서울특별시,송파구,특별시도,,동남로,1,서울특별시 송파구 동남로 341,,37.50638593,127.1380298,오륜사거리,2,50,,,,2020,서울특별시경찰청,02-700-5031,8/19/2022
G4675,서울특별시,송파구,특별시도,,위례성대로,2,서울특별시 송파구 방이동 452-18,서울특별시 송파구 방이동 452-18,37.50747126,127.1393712,오륜사거리,2,50,,,,2020,서울특별시경찰청,02-700-5031,8/19/2022
G4676,서울특별시,송파구,특별시도,,동남로,2,서울특별시 송파구 동남로 325,,37.50452233,127.1383827,SK유진주유소 앞,2,50,,,,2020,서울특별시경찰청,02-700-5031,8/19/2022
G4677,서울특별시,송파구,특별시도,,동남로,1,서울특별시 송파구 동남로 342,,37.50499392,127.1396078,SK유진주유소 건너편,2,50,,,,2020,서울특별시경찰청,02-700-5031,8/19/2022
G4702,서울특별시,송파구,특별시도,,위례순환로,2,서울특별시 송파구 장지동 879,서울특별시 송파구 장지동 879,37.4796684,127.1393228,위례22단지아파트 2209동 앞,2,30,,,2,2020,서울특별시경찰청,02-700-5031,8/19/2022
G4703,서울특별시,송파구,특별시도,,위례순환로,1,서울특별시 송파구 장지동 891,서울특별시 송파구 장지동 891,37.47774841,127.1447053,위례별초등학교 건너편,2,30,,,2,2020,서울특별시경찰청,02-700-5031,8/19/2022
G4704,서울특별시,송파구,특별시도,,위례서로,2,서울특별시 송파구 장지동 917-2,서울특별시 송파구 장지동 917-2,37.47839038,127.140126,위례22단지아파트 2208동 앞,2,50,,,,2020,서울특별시경찰청,02-700-5031,8/19/2022
G4705,서울특별시,송파구,특별시도,,위례서로,2,서울특별시 송파구 장지동 392-2,서울특별시 송파구 장지동 392-2,37.47825697,127.1370192,위례포레샤인아파트 2318동 앞,2,50,,,,2020,서울특별시경찰청,02-700-5031,8/19/2022
G4706,서울특별시,송파구,특별시도,,위례서로,1,서울특별시 송파구 장지동 530-2,서울특별시 송파구 장지동 530-2,37.47420508,127.136948,위례31단지아파트 3106동 앞,2,50,,,,2020,서울특별시경찰청,02-700-5031,8/19/2022
G4707,서울특별시,송파구,특별시도,,위례서로,1,서울특별시 송파구 장지동 917-10,서울특별시 송파구 장지동 917-10,37.47427705,127.1387582,송파꿈에그린아파트 2416동 앞,2,50,,,,2020,서울특별시경찰청,02-700-5031,8/19/2022
G4708,서울특별시,송파구,특별시도,,위례중앙로,2,서울특별시 송파구 장지동 532-9,서울특별시 송파구 장지동 532-9,37.47453884,127.136971,위례포레샤인아파트 2310동 앞,2,50,,,,2020,서울특별시경찰청,02-700-5031,8/19/2022
G4709,서울특별시,송파구,특별시도,,충민로6길,1,서울특별시 송파구 충민로6길 15,,37.48208509,127.1325036,한국육영학교 앞,2,30,,,2,2020,서울특별시경찰청,02-700-5031,8/19/2022
G4710,서울특별시,송파구,특별시도,,충민로,1,서울특별시 송파구 충민로 137,,37.48279092,127.1302571,문현초등학교 건너편,2,30,,,2,2020,서울특별시경찰청,02-700-5031,8/19/2022
G4711,서울특별시,송파구,특별시도,,충민로,2,서울특별시 송파구 충민로 137,,37.48279092,127.1302571,문현초등학교 앞,2,30,,,2,2020,서울특별시경찰청,02-700-5031,8/19/2022
G4712,서울특별시,송파구,특별시도,,백제고분로,1,서울특별시 송파구 백제고분로 236,,37.50272496,127.0925548,삼전동 주민센터 앞,2,50,,,,2020,서울특별시경찰청,02-700-5031,8/19/2022
G4989,서울특별시,서초구,특별시도,,헌릉로,2,서울특별시 서초구 헌릉로 177,,37.45748787,127.0601931,GS칼텍스 헌릉로주유소,2,50,,,,2020,서울특별시경찰청,02-700-5031,8/19/2022
G4990,서울특별시,관악구,특별시도,,양녕로,2,서울특별시 관악구 양녕로 29,,37.48466735,126.9463951,봉천두산아파트 303동 앞,2,30,,,2,2020,서울특별시경찰청,02-700-5031,8/19/2022
G4991,서울특별시,관악구,특별시도,,낙성대로,1,서울특별시 관악구 낙성대로 23,,37.47675499,126.9598639,서울인헌초등학교 앞,2,30,,,2,2020,서울특별시경찰청,02-700-5031,8/19/2022
G4992,서울특별시,관악구,특별시도,,난곡로,1,서울특별시 관악구 난곡로 66,,37.46106525,126.9198754,난향동주민센터 건너편,2,30,,,2,2020,서울특별시경찰청,02-700-5031,8/19/2022
G4993,서울특별시,관악구,특별시도,,문성로,1,서울특별시 관악구 문성로 86,,37.47713021,126.9131617,서울미성초등학교 건너편,2,30,,,2,2020,서울특별시경찰청,02-700-5031,8/19/2022
G4994,서울특별시,관악구,특별시도,,조원로,1,서울특별시 관악구 조원로 68,,37.48379618,126.9099835,서울조원초등학교 건너편,2,30,,,2,2020,서울특별시경찰청,02-700-5031,8/19/2022
G4995,서울특별시,관악구,특별시도,,난곡로,2,서울특별시 관악구 난곡로 175,,37.47068887,126.919626,우림시장 건너편,2,30,,,2,2020,서울특별시경찰청,02-700-5031,8/19/2022
G5107,서울특별시,서대문구,특별시도,,거북골로,2,서울특별시 서대문구 거북골로 105,,37.57508421,126.9180656,가재울사거리,2,30,,,2,2020,서울특별시경찰청,02-700-5031,8/19/2022
G5108,서울특별시,서대문구,특별시도,,거북골로,1,서울특별시 서대문구 거북골로 105,,37.57487163,126.9174111,가재울사거리,2,30,,,2,2020,서울특별시경찰청,02-700-5031,8/19/2022
G5109,서울특별시,서대문구,특별시도,,모래내로15길,2,서울특별시 서대문구 모래내로15길 61,,37.57378321,126.918388,가재울초교 앞,2,30,,,2,2020,서울특별시경찰청,02-700-5031,8/19/2022
G5110,서울특별시,서대문구,특별시도,,경기대로9길,1,서울특별시 서대문구 경기대로9길 10,,37.56511029,126.9628606,경기초교 앞,1,30,,,2,2020,서울특별시경찰청,02-700-5031,8/19/2022
G5111,서울특별시,서대문구,특별시도,,독립문로,1,서울특별시 서대문구 독립문로 40,,37.56866745,126.9615328,동명여자중학교 앞,1,30,,,2,2020,서울특별시경찰청,02-700-5031,8/19/2022
G5112,서울특별시,서대문구,특별시도,,이화여대8길,2,서울특별시 서대문구 이화여대8길 36,,37.55872923,126.9478603,대현럭키아파트 104동,1,30,,,2,2020,서울특별시경찰청,02-700-5031,8/19/2022
G5113,서울특별시,서대문구,특별시도,,가좌로,1,서울특별시 서대문구 가좌로 117,,37.58245209,126.9250708,명지대학교교회 앞,2,50,,,2,2020,서울특별시경찰청,02-700-5031,8/19/2022
G5114,서울특별시,서대문구,특별시도,,가좌로,1,서울특별시 서대문구 가좌로 118,,37.5830221,126.9257045,명지대학교교회 건너편,2,50,,,2,2020,서울특별시경찰청,02-700-5031,8/19/2022
G5115,서울특별시,서대문구,특별시도,,거북골로,1,서울특별시 서대문구 거북골로 204,,37.57872349,126.9086027,북가좌초교 건너편,2,30,,,2,2020,서울특별시경찰청,02-700-5031,8/19/2022
G5116,서울특별시,서대문구,특별시도,,응암로,1,서울특별시 서대문구 응암로 54,,37.57789224,126.9102044,북가좌초교사거리,2,30,,,2,2020,서울특별시경찰청,02-700-5031,8/19/2022
G5117,서울특별시,서대문구,특별시도,,증가로,2,서울특별시 서대문구 증가로 170,,37.57958728,126.9187918,연가초교 앞,2,30,,,2,2020,서울특별시경찰청,02-700-5031,8/19/2022
G5118,서울특별시,서대문구,특별시도,,증가로,1,서울특별시 서대문구 증가로 170,,37.57958728,126.9187918,연희중학교 건너편,2,30,,,2,2020,서울특별시경찰청,02-700-5031,8/19/2022
G5119,서울특별시,서대문구,특별시도,,경기대로,2,서울특별시 서대문구 경기대로 65,,37.56488513,126.9640232,인창중학교 앞,1,30,,,2,2020,서울특별시경찰청,02-700-5031,8/19/2022
G5120,서울특별시,서대문구,특별시도,,연희로,2,서울특별시 서대문구 연희로 119,,37.56852796,126.9319654,연희삼거리,2,50,,,2,2020,서울특별시경찰청,02-700-5031,8/19/2022
G5121,서울특별시,서대문구,특별시도,,연희로,1,서울특별시 서대문구 연희로 142,,37.56993316,126.9337074,연희초교 앞,1,50,,,2,2020,서울특별시경찰청,02-700-5031,8/19/2022
G5122,서울특별시,서대문구,특별시도,,북아현로,2,서울특별시 서대문구 북아현로 81,,37.56396079,126.953651,순복음반석교회 앞,1,30,,,2,2020,서울특별시경찰청,02-700-5031,8/19/2022
G5123,서울특별시,서대문구,특별시도,,백련사길,1,서울특별시 서대문구 백련사길 39,,37.58075973,126.9315574,서대문문화체육회관 앞,1,30,,,2,2020,서울특별시경찰청,02-700-5031,8/19/2022
G5124,서울특별시,서대문구,특별시도,,세검정로1길,2,서울특별시 서대문구 세검정로1길 65,,37.5935993,126.944959,홍제초교 앞,1,30,,,2,2020,서울특별시경찰청,02-700-5031,8/19/2022
G5133,서울특별시,관악구,특별시도,,은천로,1,서울특별시 관악구 은천로 60,,37.48595595,126.9421391,은천누리에뜰아파트 건너편,2,30,,,2,2020,서울특별시경찰청,02-700-5031,8/19/2022
G5134,서울특별시,관악구,특별시도,,성현로,2,서울특별시 관악구 성현로 117,,37.49124068,126.9555874,봉현초교 건너편,2,30,,,2,2020,서울특별시경찰청,02-700-5031,8/19/2022
G5135,서울특별시,관악구,특별시도,,성현로,1,서울특별시 관악구 성현로 117,,37.49124068,126.9555874,봉현초교 앞,2,30,,,2,2020,서울특별시경찰청,02-700-5031,8/19/2022
G5136,서울특별시,관악구,특별시도,,봉천로,1,서울특별시 관악구 봉천로 509,,37.48046638,126.956006,원당초교입구 교차로,2,30,,,2,2020,서울특별시경찰청,02-700-5031,8/19/2022
G5137,서울특별시,관악구,특별시도,,관악로40길,1,서울특별시 관악구 관악로40길 55,,37.49225315,126.9593512,현대유치원 앞,1,30,,,2,2020,서울특별시경찰청,02-700-5031,8/19/2022
G5138,서울특별시,관악구,특별시도,,솔밭로,2,서울특별시 관악구 솔밭로 23,,37.47954406,126.9634871,낙성대현대홈타운아파트 앞,2,30,,,2,2020,서울특별시경찰청,02-700-5031,8/19/2022
G5139,서울특별시,서초구,특별시도,,서초중앙로,2,서울특별시 서초구 서초중앙로 96,,37.49074049,127.0154245,서울교대 인문관 앞,2,50,,,,2020,서울특별시경찰청,02-700-5031,8/19/2022
G5140,서울특별시,서초구,특별시도,,남부순환로317길,1,서울특별시 서초구 남부순환로317길 22,,37.48068775,127.0106544,신중초교 앞,1,30,,,2,2020,서울특별시경찰청,02-700-5031,8/19/2022
G5141,서울특별시,서초구,특별시도,,신반포로16길,1,서울특별시 서초구 신반포로16길 15-25,,37.50181411,126.9980045,잠원초교 앞,1,30,,,2,2020,서울특별시경찰청,02-700-5031,8/19/2022
G5142,서울특별시,서초구,특별시도,,고무래로,2,서울특별시 서초구 고무래로 63,,37.5024389,127.0146195,서원초교 앞,2,30,,,2,2020,서울특별시경찰청,02-700-5031,8/19/2022
G5143,서울특별시,서초구,특별시도,,방배중앙로13길,1,서울특별시 서초구 방배중앙로13길 26,,37.48672641,126.987138,방배초교 앞,1,30,,,2,2020,서울특별시경찰청,02-700-5031,8/19/2022
G5144,서울특별시,서초구,특별시도,,청두곶길,1,서울특별시 서초구 청두곶길 22,,37.4785759,126.9854218,이수초교 앞,1,30,,,2,2020,서울특별시경찰청,02-700-5031,8/19/2022
G5145,서울특별시,서초구,특별시도,,효령로2길,1,서울특별시 서초구 효령로2길 61,,37.47567204,126.9897809,GS25방배래미안점,1,30,,,2,2020,서울특별시경찰청,02-700-5031,8/19/2022
G5146,서울특별시,서초구,특별시도,,방배로18길,2,서울특별시 서초구 방배로18길 33,,37.485734,126.9971632,방일초교 앞,1,30,,,2,2020,서울특별시경찰청,02-700-5031,8/19/2022
G5147,서울특별시,서초구,특별시도,,바우뫼로7길,2,서울특별시 서초구 바우뫼로7길 19,,37.471062,127.0245294,우암초교 앞,2,30,,,2,2020,서울특별시경찰청,02-700-5031,8/19/2022
G5148,서울특별시,서초구,특별시도,,양재대로2길,1,서울특별시 서초구 양재대로2길 74,,37.45709422,127.0192756,우솔초교 건너편,2,30,,,2,2020,서울특별시경찰청,02-700-5031,8/19/2022
G5149,서울특별시,서초구,특별시도,,신반포로,1,서울특별시 서초구 신반포로 50,,37.501755,126.9901423,구반포 세븐일레븐 건너편,2,50,,,,2020,서울특별시경찰청,02-700-5031,8/19/2022
G5150,서울특별시,서초구,특별시도,,사평대로45길,1,서울특별시 서초구 사평대로45길 26,,37.50618948,127.0125656,원촌초교 앞,1,30,,,2,2020,서울특별시경찰청,02-700-5031,8/19/2022
G5151,서울특별시,서초구,특별시도,,헌릉로,1,서울특별시 서초구 내곡동 산 12-410,서울특별시 서초구 내곡동 산 12-410,37.45950249,127.0943378,현인교 건너편,2,60,,,,2020,서울특별시경찰청,02-700-5031,8/19/2022
G5152,서울특별시,서초구,특별시도,,서래로,1,서울특별시 서초구 서래로 14,,37.49615482,126.9983571,프랑스학교 앞,2,30,,,,2020,서울특별시경찰청,02-700-5031,8/19/2022
G5153,서울특별시,서초구,특별시도,,신반포로19길,2,서울특별시 서초구 신반포로19길 30,,37.5050048,126.995679,신반포교회 건너편,1,30,,,2,2020,서울특별시경찰청,02-700-5031,8/19/2022
G5198,서울특별시,구로구,특별시도,,신도림로,2,서울특별시 구로구 신도림로 11,,37.50727521,126.878181,신도림대림3차아파트 601동,2,30,,,2,2020,서울특별시경찰청,02-700-5031,8/19/2022
G5199,서울특별시,구로구,일반국도,46,경인로,1,서울특별시 구로구 경인로 18,,37.48907226,126.8248882,성공회대입구 교차로,2,50,,,2,2020,서울특별시경찰청,02-700-5031,8/19/2022
G5200,서울특별시,구로구,일반국도,46,경인로,2,서울특별시 구로구 경인로 11,,37.48917223,126.8238898,성공회대입구 교차로,2,50,,,2,2020,서울특별시경찰청,02-700-5031,8/19/2022
G5201,서울특별시,구로구,특별시도,,오류로,1,서울특별시 구로구 오류로 54,,37.48950108,126.8400577,초원교회 건너편,2,30,,,2,2020,서울특별시경찰청,02-700-5031,8/19/2022
G5202,서울특별시,구로구,특별시도,,천왕로,2,서울특별시 구로구 천왕로 47,,37.48125086,126.8379424,구로생명숲어린이집 앞,2,30,,,2,2020,서울특별시경찰청,02-700-5031,8/19/2022
G5203,서울특별시,구로구,특별시도,,오리로,2,서울특별시 구로구 오리로 1097-6,,37.48276551,126.8421139,하늘숲초교 건너편,2,30,,,2,2020,서울특별시경찰청,02-700-5031,8/19/2022
G5204,서울특별시,구로구,특별시도,,가마산로27길,1,서울특별시 구로구 가마산로27길 66,,37.49967177,126.8902724,신구로초교 건너편,2,30,,,2,2020,서울특별시경찰청,02-700-5031,8/19/2022
G5205,서울특별시,구로구,특별시도,,신도림로,2,서울특별시 구로구 신도림로 105,,37.51215759,126.8853091,신도림중학교 건너편,2,30,,,2,2020,서울특별시경찰청,02-700-5031,8/19/2022
G5206,서울특별시,구로구,특별시도,,새말로,2,서울특별시 구로구 새말로 73,,37.50510665,126.8880803,미래초교앞 교차로,2,30,,,2,2020,서울특별시경찰청,02-700-5031,8/19/2022
G5207,서울특별시,구로구,특별시도,,중앙로,1,서울특별시 구로구 중앙로 13,,37.49917235,126.8641089,샤브향 구로점 앞,2,30,,,2,2020,서울특별시경찰청,02-700-5031,8/19/2022
G5208,서울특별시,구로구,특별시도,,부일로9길,2,서울특별시 구로구 부일로9길 57,,37.49522609,126.8254678,동산교회 앞,2,30,,,2,2020,서울특별시경찰청,02-700-5031,8/19/2022
G5209,서울특별시,구로구,일반국도,46,경인로,2,서울특별시 구로구 경인로 211,,37.49651575,126.8441958,IBK기업은행 오류동지점 앞,2,50,,,,2020,서울특별시경찰청,02-700-5031,8/19/2022
G5210,서울특별시,구로구,특별시도,,부일로9길,1,서울특별시 구로구 부일로9길 57,,37.49522609,126.8254678,동산교회 건너편,2,30,,,2,2020,서울특별시경찰청,02-700-5031,8/19/2022
G5211,서울특별시,구로구,특별시도,,서해안로,1,서울특별시 구로구 서해안로 2280,,37.49034765,126.8389645,경남아너스빌아파트 103동,2,30,,,2,2020,서울특별시경찰청,02-700-5031,8/19/2022
G5212,서울특별시,강동구,특별시도,,상일로12길,2,서울특별시 강동구 상일동 481,서울특별시 강동구 상일동 481,37.55465058,127.1740559,강명초교 앞,2,30,,,2,2020,서울특별시경찰청,02-700-5031,8/19/2022
G5213,서울특별시,강동구,특별시도,,동남로82길,2,서울특별시 강동구 동남로82길 91,,37.56061697,127.1621246,고덕중학교 앞,2,30,,,2,2020,서울특별시경찰청,02-700-5031,8/19/2022
G5214,서울특별시,강동구,특별시도,,구천면로,2,서울특별시 강동구 구천면로 278,,37.54468243,127.1338815,천일초교 교차로,2,30,,,2,2020,서울특별시경찰청,02-700-5031,8/19/2022
G5215,서울특별시,강동구,특별시도,,고덕로97길,1,서울특별시 강동구 고덕로97길 80,,37.56186962,127.1802553,강솔초교,2,30,,,2,2020,서울특별시경찰청,02-700-5031,8/19/2022
G5216,서울특별시,강동구,특별시도,,구천면로,2,서울특별시 강동구 구천면로 305,,37.54698867,127.1343449,천호초교입구 교차로,2,30,,,2,2020,서울특별시경찰청,02-700-5031,8/19/2022
G5217,서울특별시,강동구,특별시도,,명일로,1,서울특별시 강동구 명일로 364,,37.55128785,127.1505002,명원초교 앞,2,30,,,2,2020,서울특별시경찰청,02-700-5031,8/19/2022
G5218,서울특별시,강동구,특별시도,,아리수로98길,2,서울특별시 강동구 아리수로98길 24,,37.56525568,127.1772125,강일초교,2,30,,,2,2020,서울특별시경찰청,02-700-5031,8/19/2022
G5219,서울특별시,강동구,특별시도,,명일로24길,1,서울특별시 강동구 명일로24길 25,,37.54181449,127.1492919,신명중학교 앞,2,30,,,2,2020,서울특별시경찰청,02-700-5031,8/19/2022
G5220,서울특별시,강동구,특별시도,,고덕로46길,1,서울특별시 강동구 고덕로46길 53,,37.55297253,127.1474362,고명초교 앞,2,30,,,2,2020,서울특별시경찰청,02-700-5031,8/19/2022
G5221,서울특별시,강동구,특별시도,,풍성로,2,서울특별시 강동구 풍성로 159,,37.53082718,127.1297809,새마을금고 성내지점,2,30,,,,2020,서울특별시경찰청,02-700-5031,8/19/2022
G5222,서울특별시,강동구,특별시도,,고덕로80길,2,서울특별시 강동구 고덕로80길 134,,37.55171846,127.164857,고현초교 건너편,2,30,,,2,2020,서울특별시경찰청,02-700-5031,8/19/2022
G5237,서울특별시,영등포구,특별시도,,대림로,2,서울특별시 영등포구 대림로 133,,37.49307625,126.9011523,대동초교 앞,2,30,,,2,2020,서울특별시경찰청,02-700-5031,8/19/2022
G5238,서울특별시,영등포구,특별시도,,영중로,1,서울특별시 영등포구 영중로 70,,37.52245561,126.9053456,영등포시장역,2,30,,,2,2020,서울특별시경찰청,02-700-5031,8/19/2022
G5239,서울특별시,영등포구,특별시도,,당산로,2,서울특별시 영등포구 당산로 45,,37.51891054,126.8946087,문래역 교차로,2,50,,,2,2020,서울특별시경찰청,02-700-5031,8/19/2022
G5240,서울특별시,영등포구,특별시도,,당산로,1,서울특별시 영등포구 당산로 187,,37.53202744,126.8998142,당서초교 앞,2,30,,,2,2020,서울특별시경찰청,02-700-5031,8/19/2022
G5241,서울특별시,영등포구,특별시도,,선유로,2,서울특별시 영등포구 선유로 131,,37.52628923,126.8894135,당중초교 앞,2,30,,,2,2020,서울특별시경찰청,02-700-5031,8/19/2022
G5242,서울특별시,영등포구,특별시도,,문래로,2,서울특별시 영등포구 문래로 41,,37.52058349,126.8867836,영문초교 건너편,2,30,,,2,2020,서울특별시경찰청,02-700-5031,8/19/2022
G5243,서울특별시,영등포구,특별시도,,디지털로,1,서울특별시 영등포구 디지털로 406,,37.49275105,126.9038292,CU대림디지털점,2,30,,,2,2020,서울특별시경찰청,02-700-5031,8/19/2022
G5244,서울특별시,영등포구,특별시도,,양평로22길,2,서울특별시 영등포구 양평로22길 21,,37.53980714,126.8946571,당산초교 건너편,2,30,,,2,2020,서울특별시경찰청,02-700-5031,8/19/2022
G5245,서울특별시,영등포구,특별시도,,도신로60길,2,서울특별시 영등포구 도신로60길 23,,37.51017196,126.9181221,영신초교 앞,2,30,,,2,2020,서울특별시경찰청,02-700-5031,8/19/2022
G5246,서울특별시,영등포구,특별시도,,도림로,2,서울특별시 영등포구 도림로 271,,37.50202191,126.9042101,GS25영등포호수점,2,50,,,2,2020,서울특별시경찰청,02-700-5031,8/19/2022
G5247,서울특별시,영등포구,특별시도,,대방천로,1,서울특별시 영등포구 대방천로 196,,37.49884498,126.9125903,대길초교 앞,2,30,,,2,2020,서울특별시경찰청,02-700-5031,8/19/2022
G5248,서울특별시,영등포구,특별시도,,선유로43길,2,서울특별시 영등포구 선유로43길 19,,37.5333918,126.8938034,선유중학교 건너편,2,30,,,2,2020,서울특별시경찰청,02-700-5031,8/19/2022
G5249,서울특별시,영등포구,특별시도,,도영로,2,서울특별시 영등포구 도영로 54,,37.51031206,126.8985968,도림고가차도,1,30,,,2,2020,서울특별시경찰청,02-700-5031,8/19/2022
G5250,서울특별시,양천구,특별시도,,오목로52길,1,서울특별시 양천구 신정동 314-4,서울특별시 양천구 신정동 314-4,37.52370762,126.868623,진도1차아파트 건너편,2,30,,,2,2020,서울특별시경찰청,02-700-5031,8/19/2022
G5251,서울특별시,강남구,특별시도,,자곡로,1,서울특별시 강남구 자곡로 150,,37.47219072,127.0996009,자곡초교 앞,2,30,,,2,2020,서울특별시경찰청,02-700-5031,8/19/2022
G5252,서울특별시,강남구,특별시도,,자곡로,2,서울특별시 강남구 자곡로 150,,37.47219072,127.0996009,자곡초교 건너편,2,30,,,2,2020,서울특별시경찰청,02-700-5031,8/19/2022
G5253,서울특별시,관악구,특별시도,,호암로,1,서울특별시 관악구 호암로 498,,37.46326397,126.9325353,신우초교 앞,1,30,,,2,2020,서울특별시경찰청,02-700-5031,8/19/2022
G5254,서울특별시,관악구,특별시도,,문성로,1,서울특별시 관악구 문성로 89,,37.47762136,126.9135543,미성초교 앞,2,30,,,2,2020,서울특별시경찰청,02-700-5031,8/19/2022
G5255,서울특별시,관악구,특별시도,,난우길,2,서울특별시 관악구 난우길 40,,37.47711829,126.91762,난우초교 앞,2,30,,,2,2020,서울특별시경찰청,02-700-5031,8/19/2022
G5256,서울특별시,관악구,특별시도,,문성로,2,서울특별시 관악구 문성로 217,,37.47943249,126.9278628,CU신림인석점 앞,2,30,,,2,2020,서울특별시경찰청,02-700-5031,8/19/2022
G5257,서울특별시,관악구,특별시도,,난곡로,2,서울특별시 관악구 난곡로 217,,37.47385138,126.9174845,세이브마트 건너편,2,30,,,2,2020,서울특별시경찰청,02-700-5031,8/19/2022
G5258,서울특별시,양천구,특별시도,,목동동로8길,1,서울특별시 양천구 신정동 329,서울특별시 양천구 신정동 329,37.514999,126.8712369,목동신시가지아파트 1434동 앞,2,30,,,2,2020,서울특별시경찰청,02-700-5031,8/19/2022
G5259,서울특별시,양천구,특별시도,,목동로3길,2,서울특별시 양천구 신정동 325-6,서울특별시 양천구 신정동 325-6,37.51051775,126.8596245,계남초교 건너편,2,30,,,2,2020,서울특별시경찰청,02-700-5031,8/19/2022
G5260,서울특별시,양천구,특별시도,,목동중앙로,1,서울특별시 양천구 목동중앙로 57,,37.53466729,126.8694745,신동아파밀리에아파트 건너편,2,30,,,2,2020,서울특별시경찰청,02-700-5031,8/19/2022
G5261,서울특별시,양천구,특별시도,,신정로13길,2,서울특별시 양천구 신정로13길 21,,37.51130088,126.8425702,한성교회 앞,1,30,,,2,2020,서울특별시경찰청,02-700-5031,8/19/2022
G5262,서울특별시,양천구,특별시도,,신정로7길,2,서울특별시 양천구 신정동 1316-9,서울특별시 양천구 신정동 1316-9,37.51275813,126.8349957,대일관광고교 앞,2,50,,,2,2020,서울특별시경찰청,02-700-5031,8/19/2022
G5263,서울특별시,양천구,특별시도,,목동중앙로,2,서울특별시 양천구 목동중앙로 95,,37.53763954,126.8722216,신목중학교 건너편,2,30,,,2,2020,서울특별시경찰청,02-700-5031,8/19/2022
G5264,서울특별시,양천구,특별시도,,중앙로,2,서울특별시 양천구 중앙로 205,,37.51491917,126.8549857,신정3동주민센터 앞,1,50,,,2,2020,서울특별시경찰청,02-700-5031,8/19/2022
G5265,서울특별시,양천구,특별시도,,신정로,1,서울특별시 양천구 신정로 292,,37.51131231,126.854213,신기초교 앞,1,30,,,2,2020,서울특별시경찰청,02-700-5031,8/19/2022
G5266,서울특별시,양천구,특별시도,,신월로,1,서울특별시 양천구 신월로 97,,37.51634172,126.8334319,강월초교 건너편,2,50,,,2,2020,서울특별시경찰청,02-700-5031,8/19/2022
G5267,서울특별시,양천구,특별시도,,월정로,1,서울특별시 양천구 월정로 280,,37.54209971,126.8295837,강신초교 앞,2,30,,,2,2020,서울특별시경찰청,02-700-5031,8/19/2022
G5268,서울특별시,양천구,특별시도,,목동동로,2,서울특별시 양천구 목동동로 235,,37.52700952,126.8730442,목운초교 앞,2,30,,,2,2020,서울특별시경찰청,02-700-5031,8/19/2022
G5269,서울특별시,양천구,특별시도,,목동동로,1,서울특별시 양천구 목동동로 401,,37.53637527,126.8811263,부영그린타운2차아파트 건너편,2,50,,,,2020,서울특별시경찰청,02-700-5031,8/19/2022
G5270,서울특별시,광진구,특별시도,,영화사로,2,서울특별시 광진구 영화사로 105,,37.55402501,127.0977191,영화사어린이집 건너편,1,30,,,2,2020,서울특별시경찰청,02-700-5031,8/19/2022
G5271,서울특별시,광진구,일반국도,3,자양로,2,서울특별시 광진구 자양로 247,,37.54865032,127.0888376,세븐일레븐구의본점 앞,2,50,,,,2020,서울특별시경찰청,02-700-5031,8/19/2022
G5272,서울특별시,광진구,특별시도,,광나루로43길,2,서울특별시 광진구 구의동 668,서울특별시 광진구 구의동 668,37.54625622,127.0899876,래미안구의파크스위트아파트,2,30,,,2,2020,서울특별시경찰청,02-700-5031,8/19/2022
G5273,서울특별시,노원구,특별시도,,한글비석로,2,서울특별시 노원구 한글비석로 506,,37.66529134,127.0625329,청원초교,2,30,,,2,2020,서울특별시경찰청,02-700-5031,8/19/2022
G5274,서울특별시,노원구,특별시도,,동일로,2,서울특별시 노원구 동일로 1461,,37.65913138,127.0582807,용화여자고교 앞,1,50,,,,2020,서울특별시경찰청,02-700-5031,8/19/2022
G5275,서울특별시,노원구,특별시도,,노원로34길,2,서울특별시 노원구 노원로34길 16,,37.65962296,127.0654841,온곡중학교 앞,2,30,,,2,2020,서울특별시경찰청,02-700-5031,8/19/2022
G5276,서울특별시,노원구,특별시도,,수락산로,1,서울특별시 노원구 수락산로 237,,37.67055214,127.0516742,상계주공아파트 1617동,2,30,,,2,2020,서울특별시경찰청,02-700-5031,8/19/2022
G5277,서울특별시,노원구,특별시도,,한글비석로52길,2,서울특별시 노원구 한글비석로52길 59,,37.66754054,127.0659102,온곡초교 앞,2,30,,,2,2020,서울특별시경찰청,02-700-5031,8/19/2022
G5278,서울특별시,노원구,특별시도,,한글비석로,2,서울특별시 노원구 상계동 159-4,서울특별시 노원구 상계동 159-4,37.66203133,127.070024,계상초교 앞,2,30,,,2,2020,서울특별시경찰청,02-700-5031,8/19/2022
G5279,서울특별시,강북구,특별시도,,인수봉로,1,서울특별시 강북구 인수봉로 214,,37.638707,127.0137365,우이초교 앞,2,30,,,2,2020,서울특별시경찰청,02-700-5031,8/19/2022
G5280,서울특별시,강북구,특별시도,,삼양로,1,서울특별시 강북구 삼양로 302,,37.63039427,127.0179922,수유1동주민센터 건너편,2,50,,,,2020,서울특별시경찰청,02-700-5031,8/19/2022
G5281,서울특별시,강북구,특별시도,,삼양로,2,서울특별시 강북구 삼양로 229,,37.623837,127.0183655,삼양동우체국 앞,2,30,,,2,2020,서울특별시경찰청,02-700-5031,8/19/2022
G5282,서울특별시,강북구,특별시도,,오패산로,1,서울특별시 강북구 오패산로 240,,37.62317565,127.0317169,대성아파트 6동 앞,2,30,,,2,2020,서울특별시경찰청,02-700-5031,8/19/2022
G5283,서울특별시,강북구,특별시도,,삼양로19길,1,서울특별시 강북구 삼양로19길 164,,37.61737037,127.0157735,순복음새서울교회,2,30,,,2,2020,서울특별시경찰청,02-700-5031,8/19/2022
G5284,서울특별시,강북구,특별시도,,월계로37길,2,서울특별시 강북구 월계로37길 61,,37.62480918,127.0449183,번동한진아파트 앞,2,30,,,2,2020,서울특별시경찰청,02-700-5031,8/19/2022
G5285,서울특별시,성북구,특별시도,,종암로27길,1,서울특별시 성북구 종암로27길 78,,37.60153044,127.0286799,종암래미안아파트 101동 앞,1,30,,,2,2020,서울특별시경찰청,02-700-5031,8/19/2022
G5286,서울특별시,성북구,특별시도,,보문사길,1,서울특별시 성북구 보문사길 49,,37.58332938,127.0179315,동신초교 앞,1,30,,,2,2020,서울특별시경찰청,02-700-5031,8/19/2022
G5287,서울특별시,양천구,특별시도,,남부순환로83길,1,서울특별시 양천구 남부순환로83길 44,,37.51652866,126.8447962,신남초교,2,30,,,2,2020,서울특별시경찰청,02-700-5031,8/19/2022
G5288,서울특별시,중랑구,특별시도,,면목천로,2,서울특별시 중랑구 면목동 1508-9,서울특별시 중랑구 면목동 1508-9,37.58352181,127.0837025,면목삼팔파출소 건너편,2,50,,,,2020,서울특별시경찰청,02-700-5031,8/19/2022
G5298,서울특별시,동작구,특별시도,,강남초등길,2,서울특별시 동작구 강남초등길 15,,37.50615814,126.9533591,강남초교 앞,1,30,,,2,2020,서울특별시경찰청,02-700-5031,8/19/2022
G5299,서울특별시,동작구,특별시도,,성대로21길,1,서울특별시 동작구 성대로21길 62,,37.50034777,126.9372695,상도초교 앞,1,30,,,2,2020,서울특별시경찰청,02-700-5031,8/19/2022
G5300,서울특별시,동작구,특별시도,,상도로,2,서울특별시 동작구 상도로 41,,37.50000437,126.925146,대림초교입구,2,30,,,2,2020,서울특별시경찰청,02-700-5031,8/19/2022
G5301,서울특별시,동작구,특별시도,,대림로,2,서울특별시 동작구 대림로 6,,37.48772774,126.9123718,수연온누리약국 앞,2,30,,,2,2020,서울특별시경찰청,02-700-5031,8/19/2022
G5302,서울특별시,동작구,특별시도,,사당로23나길,2,서울특별시 동작구 사당로23나길 27,,37.48825931,126.9751885,삼일초교 앞,2,30,,,2,2020,서울특별시경찰청,02-700-5031,8/19/2022
G5303,서울특별시,동작구,특별시도,,여의대방로44길,2,서울특별시 동작구 여의대방로44길 9,,37.50973084,126.9259178,성원아파트 101동,2,30,,,2,2020,서울특별시경찰청,02-700-5031,8/19/2022
G5304,서울특별시,동작구,특별시도,,만양로4길,2,서울특별시 동작구 노량진동 323,서울특별시 동작구 노량진동 323,37.51030426,126.9468658,한신휴플러스아파트 104동 앞,2,30,,,2,2020,서울특별시경찰청,02-700-5031,8/19/2022
G5305,서울특별시,동작구,특별시도,,등용로,1,서울특별시 동작구 등용로 86-1,,37.5089572,126.9323686,영화초교 앞,2,30,,,2,2020,서울특별시경찰청,02-700-5031,8/19/2022
G5306,서울특별시,동작구,특별시도,,서달로,2,서울특별시 동작구 서달로 135,,37.50545264,126.9596777,중앙사대부속초교 앞,2,30,,,2,2020,서울특별시경찰청,02-700-5031,8/19/2022
G5307,서울특별시,동작구,특별시도,,여의대방로16길,2,서울특별시 동작구 여의대방로16길 53,,37.49471976,126.9167677,동작구민체육센터,1,30,,,2,2020,서울특별시경찰청,02-700-5031,8/19/2022
G5308,서울특별시,동작구,특별시도,,동작대로29길,1,서울특별시 동작구 동작대로29길 172,,37.49246782,126.9769273,성천교회 앞,1,30,,,2,2020,서울특별시경찰청,02-700-5031,8/19/2022
G5309,서울특별시,동작구,특별시도,,사당로28길,2,서울특별시 동작구 사당로28길 34,,37.48165807,126.9793703,남사초교 앞,1,30,,,2,2020,서울특별시경찰청,02-700-5031,8/19/2022
G5310,서울특별시,강동구,특별시도,,고덕로79길,2,서울특별시 강동구 고덕로79길 114,,37.5615047,127.1659637,고덕초교 건너편,1,30,,,,2020,서울특별시경찰청,02-700-5031,8/19/2022
G5311,서울특별시,강동구,특별시도,,고덕로,1,서울특별시 강동구 암사동 506-8,서울특별시 강동구 암사동 506-8,37.55542142,127.1291396,선사초교 앞,1,30,,,2,2020,서울특별시경찰청,02-700-5031,8/19/2022
G5312,서울특별시,강동구,특별시도,,동남로79길,2,서울특별시 강동구 동남로79길 46,,37.55871279,127.1530934,묘곡초교 앞,1,30,,,2,2020,서울특별시경찰청,02-700-5031,8/19/2022
G5313,서울특별시,강동구,특별시도,,구천면로93길,2,서울특별시 강동구 구천면로93길 12,,37.55117453,127.1687422,고일초교 건너편,1,30,,,2,2020,서울특별시경찰청,02-700-5031,8/19/2022
G5314,서울특별시,송파구,특별시도,,위례성대로,1,서울특별시 송파구 방이동 452-12,서울특별시 송파구 방이동 452-12,37.50797402,127.137365,송파레미니스아파트 204동 앞,2,50,,,,2020,서울특별시경찰청,02-700-5031,8/19/2022
G5329,서울특별시,중랑구,특별시도,,용마산로,1,서울특별시 중랑구 용마산로 616,,37.60493329,127.1012262,새한아파트 101동 앞,2,50,,,2,2020,서울특별시경찰청,02-700-5031,8/19/2022
G5330,서울특별시,중랑구,특별시도,,용마산로,2,서울특별시 중랑구 용마산로 615,,37.6059939,127.100671,영풍마드레빌아파트 105동 앞,2,50,,,2,2020,서울특별시경찰청,02-700-5031,8/19/2022
G5331,서울특별시,중랑구,특별시도,,면목로27길,2,서울특별시 중랑구 면목로27길 24,,37.575208,127.083998,중곡초교 건너편,2,30,,,2,2020,서울특별시경찰청,02-700-5031,8/19/2022
G5332,서울특별시,중랑구,특별시도,,봉우재로,2,서울특별시 중랑구 봉우재로 23,,37.5900434,127.0757754,중랑초교 건너편,2,30,,,2,2020,서울특별시경찰청,02-700-5031,8/19/2022
G5333,서울특별시,중랑구,특별시도,,신내로21길,2,서울특별시 중랑구 신내로21길 55,,37.61531513,127.0898585,금성초교 건너편,2,30,,,2,2020,서울특별시경찰청,02-700-5031,8/19/2022
G5334,서울특별시,중랑구,특별시도,,송림길,2,서울특별시 중랑구 송림길 114,,37.60457824,127.1044913,동원초교 건너편,1,30,,,2,2020,서울특별시경찰청,02-700-5031,8/19/2022
G5335,서울특별시,중랑구,특별시도,,면목로,1,서울특별시 중랑구 면목로 434,,37.590607,127.0872878,면목초교 앞,2,30,,,2,2020,서울특별시경찰청,02-700-5031,8/19/2022
G5336,서울특별시,중랑구,특별시도,,신내로19길,2,서울특별시 중랑구 신내동 654-1,서울특별시 중랑구 신내동 654-1,37.61515971,127.0925133,봉화초교 건너편,2,30,,,2,2020,서울특별시경찰청,02-700-5031,8/19/2022
G5337,서울특별시,중랑구,특별시도,,숙선옹주로,1,서울특별시 중랑구 숙선옹주로 109,,37.61774881,127.0868142,원묵초교 건너편,2,30,,,,2020,서울특별시경찰청,02-700-5031,8/19/2022
G5338,서울특별시,중랑구,특별시도,,봉화산로,2,서울특별시 중랑구 봉화산로 81,,37.60195343,127.0833938,중흥초교 건너편,2,50,,,2,2020,서울특별시경찰청,02-700-5031,8/19/2022
G5339,서울특별시,중랑구,특별시도,,신내역로,1,서울특별시 중랑구 신내역로 165,,37.61655923,127.1097561,새솔유치원 건너편,2,30,,,2,2020,서울특별시경찰청,02-700-5031,8/19/2022
G5340,서울특별시,노원구,특별시도,,광운로,1,서울특별시 노원구 월계동 471-7,서울특별시 노원구 월계동 471-7,37.61869442,127.0578029,선곡초교 앞,2,30,,,2,2020,서울특별시경찰청,02-700-5031,8/19/2022
G5341,서울특별시,노원구,특별시도,,덕릉로,1,서울특별시 노원구 덕릉로 450,,37.64487286,127.058358,상천초교 건너편,2,50,,,2,2020,서울특별시경찰청,02-700-5031,8/19/2022
G5342,서울특별시,노원구,특별시도,,한글비석로,2,서울특별시 노원구 한글비석로 145,,37.64058745,127.0759798,한성유치원,2,50,,,2,2020,서울특별시경찰청,02-700-5031,8/19/2022
G5343,서울특별시,노원구,특별시도,,마들로,2,서울특별시 노원구 마들로 45,,37.62070936,127.0692435,한천초교 앞,2,50,,,2,2020,서울특별시경찰청,02-700-5031,8/19/2022
G5344,서울특별시,노원구,특별시도,,덕릉로,1,서울특별시 노원구 중계동 377,서울특별시 노원구 중계동 377,37.65107988,127.0734747,청암고교 교차로,2,50,,,2,2020,서울특별시경찰청,02-700-5031,8/19/2022
G5345,서울특별시,노원구,특별시도,,덕릉로,2,서울특별시 노원구 덕릉로 639,,37.65473265,127.0739453,원광초교 교차로,2,50,,,2,2020,서울특별시경찰청,02-700-5031,8/19/2022
